{
"type": "FeatureCollection",
"name": "lsoa21_place_points",
"crs": { "type": "name", "properties": { "name": "urn:ogc:def:crs:OGC:1.3:CRS84" } },
"features": [
{ "type": "Feature", "properties": { "LSOA21CD": "E01007110", "place_type": "Suburb", "place_name": "Higher Bebington", "distance_to_lsoa21_centroid_metres": 277 }, "geometry": { "type": "Point", "coordinates": [ -3.0244986, 53.3537804 ] } },
{ "type": "Feature", "properties": { "LSOA21CD": "E01007143", "place_type": "Suburb", "place_name": "Bromborough Pool", "distance_to_lsoa21_centroid_metres": 817 }, "geometry": { "type": "Point", "coordinates": [ -2.9805121, 53.3511147 ] } },
{ "type": "Feature", "properties": { "LSOA21CD": "E01007144", "place_type": "Pub", "place_name": "Seven Stars", "distance_to_lsoa21_centroid_metres": 29 }, "geometry": { "type": "Point", "coordinates": [ -3.0442978, 53.3209861 ] } },
{ "type": "Feature", "properties": { "LSOA21CD": "E01007164", "place_type": "Village", "place_name": "Eastham Village", "distance_to_lsoa21_centroid_metres": 347 }, "geometry": { "type": "Point", "coordinates": [ -2.9599091, 53.3144641 ] } },
{ "type": "Feature", "properties": { "LSOA21CD": "E01007190", "place_type": "Pub", "place_name": "The Black Horse Hotel", "distance_to_lsoa21_centroid_metres": 303 }, "geometry": { "type": "Point", "coordinates": [ -3.102582825474496, 53.32331535 ] } },
{ "type": "Feature", "properties": { "LSOA21CD": "E01007191", "place_type": "Village", "place_name": "Gayton", "distance_to_lsoa21_centroid_metres": 385 }, "geometry": { "type": "Point", "coordinates": [ -3.0900369, 53.316759 ] } },
{ "type": "Feature", "properties": { "LSOA21CD": "E01007193", "place_type": "Town", "place_name": "Hoylake", "distance_to_lsoa21_centroid_metres": 334 }, "geometry": { "type": "Point", "coordinates": [ -3.1783429, 53.3917719 ] } },
{ "type": "Feature", "properties": { "LSOA21CD": "E01007195", "place_type": "Railway station", "place_name": "Meols", "distance_to_lsoa21_centroid_metres": 292 }, "geometry": { "type": "Point", "coordinates": [ -3.1539246, 53.3994382 ] } },
{ "type": "Feature", "properties": { "LSOA21CD": "E01007196", "place_type": "Town", "place_name": "West Kirby", "distance_to_lsoa21_centroid_metres": 426 }, "geometry": { "type": "Point", "coordinates": [ -3.1865608, 53.3733229 ] } },
{ "type": "Feature", "properties": { "LSOA21CD": "E01007199", "place_type": "Pub", "place_name": "The Railway", "distance_to_lsoa21_centroid_metres": 295 }, "geometry": { "type": "Point", "coordinates": [ -3.159087648217026, 53.4013369 ] } },
{ "type": "Feature", "properties": { "LSOA21CD": "E01007203", "place_type": "Pub", "place_name": "Leasowe Golf Club", "distance_to_lsoa21_centroid_metres": 652 }, "geometry": { "type": "Point", "coordinates": [ -3.1035281, 53.4194806 ] } },
{ "type": "Feature", "properties": { "LSOA21CD": "E01007255", "place_type": "Village", "place_name": "Thingwall", "distance_to_lsoa21_centroid_metres": 224 }, "geometry": { "type": "Point", "coordinates": [ -3.0866642, 53.3529266 ] } },
{ "type": "Feature", "properties": { "LSOA21CD": "E01007283", "place_type": "Village", "place_name": "Caldy", "distance_to_lsoa21_centroid_metres": 50 }, "geometry": { "type": "Point", "coordinates": [ -3.1605838, 53.3576183 ] } },
{ "type": "Feature", "properties": { "LSOA21CD": "E01007284", "place_type": "Village", "place_name": "Thurstaston", "distance_to_lsoa21_centroid_metres": 1043 }, "geometry": { "type": "Point", "coordinates": [ -3.1325358, 53.3484414 ] } },
{ "type": "Feature", "properties": { "LSOA21CD": "E01013990", "place_type": "Village", "place_name": "Mordiford", "distance_to_lsoa21_centroid_metres": 864 }, "geometry": { "type": "Point", "coordinates": [ -2.6275176, 52.0329935 ] } },
{ "type": "Feature", "properties": { "LSOA21CD": "E01013991", "place_type": "Village", "place_name": "Stoke Edith", "distance_to_lsoa21_centroid_metres": 397 }, "geometry": { "type": "Point", "coordinates": [ -2.5797191, 52.062829 ] } },
{ "type": "Feature", "properties": { "LSOA21CD": "E01013998", "place_type": "Village", "place_name": "Orleton", "distance_to_lsoa21_centroid_metres": 245 }, "geometry": { "type": "Point", "coordinates": [ -2.7456867, 52.30058 ] } },
{ "type": "Feature", "properties": { "LSOA21CD": "E01013999", "place_type": "Village", "place_name": "Kingsland", "distance_to_lsoa21_centroid_metres": 102 }, "geometry": { "type": "Point", "coordinates": [ -2.8146415, 52.2495981 ] } },
{ "type": "Feature", "properties": { "LSOA21CD": "E01014000", "place_type": "Village", "place_name": "Thornbury", "distance_to_lsoa21_centroid_metres": 2718 }, "geometry": { "type": "Point", "coordinates": [ -2.5558058, 52.2337119 ] } },
{ "type": "Feature", "properties": { "LSOA21CD": "E01014001", "place_type": "Village", "place_name": "Whitbourne", "distance_to_lsoa21_centroid_metres": 2083 }, "geometry": { "type": "Point", "coordinates": [ -2.4070994, 52.2098594 ] } },
{ "type": "Feature", "properties": { "LSOA21CD": "E01014004", "place_type": "Village", "place_name": "Little Cowarne", "distance_to_lsoa21_centroid_metres": 982 }, "geometry": { "type": "Point", "coordinates": [ -2.5832663, 52.1571276 ] } },
{ "type": "Feature", "properties": { "LSOA21CD": "E01014006", "place_type": "Village", "place_name": "Burghill", "distance_to_lsoa21_centroid_metres": 140 }, "geometry": { "type": "Point", "coordinates": [ -2.7643597, 52.0960708 ] } },
{ "type": "Feature", "properties": { "LSOA21CD": "E01014008", "place_type": "Pub", "place_name": "The Kinnersley Arms", "distance_to_lsoa21_centroid_metres": 548 }, "geometry": { "type": "Point", "coordinates": [ -2.964398210792623, 52.1328637 ] } },
{ "type": "Feature", "properties": { "LSOA21CD": "E01014009", "place_type": "Village", "place_name": "Lower Welson", "distance_to_lsoa21_centroid_metres": 392 }, "geometry": { "type": "Point", "coordinates": [ -3.0307876, 52.1446785 ] } },
{ "type": "Feature", "properties": { "LSOA21CD": "E01014012", "place_type": "Village", "place_name": "Swainshill", "distance_to_lsoa21_centroid_metres": 254 }, "geometry": { "type": "Point", "coordinates": [ -2.7774581, 52.0717519 ] } },
{ "type": "Feature", "properties": { "LSOA21CD": "E01014013", "place_type": "Village", "place_name": "Credenhill", "distance_to_lsoa21_centroid_metres": 280 }, "geometry": { "type": "Point", "coordinates": [ -2.8043354, 52.0880024 ] } },
{ "type": "Feature", "properties": { "LSOA21CD": "E01014014", "place_type": "Village", "place_name": "Ashperton", "distance_to_lsoa21_centroid_metres": 15 }, "geometry": { "type": "Point", "coordinates": [ -2.5209943, 52.0717532 ] } },
{ "type": "Feature", "properties": { "LSOA21CD": "E01014015", "place_type": "Pub", "place_name": "Chase Inn", "distance_to_lsoa21_centroid_metres": 74 }, "geometry": { "type": "Point", "coordinates": [ -2.4950042, 52.1330439 ] } },
{ "type": "Feature", "properties": { "LSOA21CD": "E01014016", "place_type": "Village", "place_name": "Weobley", "distance_to_lsoa21_centroid_metres": 72 }, "geometry": { "type": "Point", "coordinates": [ -2.8725145, 52.1590644 ] } },
{ "type": "Feature", "properties": { "LSOA21CD": "E01014017", "place_type": "Village", "place_name": "Dilwyn Common", "distance_to_lsoa21_centroid_metres": 1097 }, "geometry": { "type": "Point", "coordinates": [ -2.8466821, 52.1904369 ] } },
{ "type": "Feature", "properties": { "LSOA21CD": "E01014018", "place_type": "Village", "place_name": "Middlewood", "distance_to_lsoa21_centroid_metres": 1922 }, "geometry": { "type": "Point", "coordinates": [ -3.0397363, 52.0961859 ] } },
{ "type": "Feature", "properties": { "LSOA21CD": "E01014019", "place_type": "Village", "place_name": "Peterchurch", "distance_to_lsoa21_centroid_metres": 284 }, "geometry": { "type": "Point", "coordinates": [ -2.9536966, 52.0404061 ] } },
{ "type": "Feature", "properties": { "LSOA21CD": "E01014020", "place_type": "Village", "place_name": "Longtown", "distance_to_lsoa21_centroid_metres": 2757 }, "geometry": { "type": "Point", "coordinates": [ -2.9883612, 51.9566605 ] } },
{ "type": "Feature", "properties": { "LSOA21CD": "E01014021", "place_type": "Village", "place_name": "Ewyas Harold", "distance_to_lsoa21_centroid_metres": 105 }, "geometry": { "type": "Point", "coordinates": [ -2.8907934, 51.9522533 ] } },
{ "type": "Feature", "properties": { "LSOA21CD": "E01014022", "place_type": "Pub", "place_name": "The Godwins", "distance_to_lsoa21_centroid_metres": 63 }, "geometry": { "type": "Point", "coordinates": [ -2.642707992384891, 52.0674852 ] } },
{ "type": "Feature", "properties": { "LSOA21CD": "E01014023", "place_type": "Village", "place_name": "Withington", "distance_to_lsoa21_centroid_metres": 404 }, "geometry": { "type": "Point", "coordinates": [ -2.6356094, 52.0874193 ] } },
{ "type": "Feature", "properties": { "LSOA21CD": "E01014024", "place_type": "Pub", "place_name": "Fisherman's Arms", "distance_to_lsoa21_centroid_metres": 877 }, "geometry": { "type": "Point", "coordinates": [ -2.6485819, 52.2163298 ] } },
{ "type": "Feature", "properties": { "LSOA21CD": "E01014025", "place_type": "Pub", "place_name": "England's Gate", "distance_to_lsoa21_centroid_metres": 226 }, "geometry": { "type": "Point", "coordinates": [ -2.669047903808718, 52.15761405 ] } },
{ "type": "Feature", "properties": { "LSOA21CD": "E01014026", "place_type": "Village", "place_name": "Dinedor", "distance_to_lsoa21_centroid_metres": 1872 }, "geometry": { "type": "Point", "coordinates": [ -2.6796781, 52.0275004 ] } },
{ "type": "Feature", "properties": { "LSOA21CD": "E01014027", "place_type": "Village", "place_name": "Bosbury", "distance_to_lsoa21_centroid_metres": 1022 }, "geometry": { "type": "Point", "coordinates": [ -2.445252, 52.0888169 ] } },
{ "type": "Feature", "properties": { "LSOA21CD": "E01014028", "place_type": "Pub", "place_name": "Chase Inn", "distance_to_lsoa21_centroid_metres": 1177 }, "geometry": { "type": "Point", "coordinates": [ -2.3422315, 52.0850971 ] } },
{ "type": "Feature", "properties": { "LSOA21CD": "E01014031", "place_type": "Village", "place_name": "Whitchurch", "distance_to_lsoa21_centroid_metres": 233 }, "geometry": { "type": "Point", "coordinates": [ -2.65605, 51.8544561 ] } },
{ "type": "Feature", "properties": { "LSOA21CD": "E01014032", "place_type": "Village", "place_name": "Walford", "distance_to_lsoa21_centroid_metres": 492 }, "geometry": { "type": "Point", "coordinates": [ -2.599114, 51.8812982 ] } },
{ "type": "Feature", "properties": { "LSOA21CD": "E01014033", "place_type": "Town", "place_name": "Kington", "distance_to_lsoa21_centroid_metres": 127 }, "geometry": { "type": "Point", "coordinates": [ -3.028878, 52.2029156 ] } },
{ "type": "Feature", "properties": { "LSOA21CD": "E01014036", "place_type": "Pub", "place_name": "The Royal Oak", "distance_to_lsoa21_centroid_metres": 373 }, "geometry": { "type": "Point", "coordinates": [ -2.4223846, 52.0354776 ] } },
{ "type": "Feature", "properties": { "LSOA21CD": "E01014040", "place_type": "Railway station", "place_name": "Ledbury", "distance_to_lsoa21_centroid_metres": 389 }, "geometry": { "type": "Point", "coordinates": [ -2.4256108, 52.0452528 ] } },
{ "type": "Feature", "properties": { "LSOA21CD": "E01014046", "place_type": "Pub", "place_name": "Baron's Cross Inn", "distance_to_lsoa21_centroid_metres": 913 }, "geometry": { "type": "Point", "coordinates": [ -2.7639092, 52.2228677 ] } },
{ "type": "Feature", "properties": { "LSOA21CD": "E01014049", "place_type": "Pub", "place_name": "Yew Tree Inn", "distance_to_lsoa21_centroid_metres": 1020 }, "geometry": { "type": "Point", "coordinates": [ -2.632091656999759, 51.9170956 ] } },
{ "type": "Feature", "properties": { "LSOA21CD": "E01014050", "place_type": "Village", "place_name": "Llangrove", "distance_to_lsoa21_centroid_metres": 629 }, "geometry": { "type": "Point", "coordinates": [ -2.6882598, 51.8694104 ] } },
{ "type": "Feature", "properties": { "LSOA21CD": "E01014051", "place_type": "Village", "place_name": "Adforton", "distance_to_lsoa21_centroid_metres": 1265 }, "geometry": { "type": "Point", "coordinates": [ -2.8802727, 52.3345051 ] } },
{ "type": "Feature", "properties": { "LSOA21CD": "E01014052", "place_type": "Village", "place_name": "Lingen", "distance_to_lsoa21_centroid_metres": 2956 }, "geometry": { "type": "Point", "coordinates": [ -2.9319832, 52.2976447 ] } },
{ "type": "Feature", "properties": { "LSOA21CD": "E01014053", "place_type": "Village", "place_name": "Foy", "distance_to_lsoa21_centroid_metres": 1657 }, "geometry": { "type": "Point", "coordinates": [ -2.5894807, 51.9523281 ] } },
{ "type": "Feature", "properties": { "LSOA21CD": "E01014054", "place_type": "Village", "place_name": "Much Marcle", "distance_to_lsoa21_centroid_metres": 2403 }, "geometry": { "type": "Point", "coordinates": [ -2.5001759, 51.9927761 ] } },
{ "type": "Feature", "properties": { "LSOA21CD": "E01014055", "place_type": "Village", "place_name": "Shobdon", "distance_to_lsoa21_centroid_metres": 444 }, "geometry": { "type": "Point", "coordinates": [ -2.8835757, 52.2515955 ] } },
{ "type": "Feature", "properties": { "LSOA21CD": "E01014056", "place_type": "Village", "place_name": "Lyonshall", "distance_to_lsoa21_centroid_metres": 761 }, "geometry": { "type": "Point", "coordinates": [ -2.9796914, 52.1999644 ] } },
{ "type": "Feature", "properties": { "LSOA21CD": "E01014057", "place_type": "Village", "place_name": "Linton", "distance_to_lsoa21_centroid_metres": 1979 }, "geometry": { "type": "Point", "coordinates": [ -2.4952993, 51.9251564 ] } },
{ "type": "Feature", "properties": { "LSOA21CD": "E01014058", "place_type": "Village", "place_name": "Aston Ingham", "distance_to_lsoa21_centroid_metres": 2745 }, "geometry": { "type": "Point", "coordinates": [ -2.4604915, 51.9105612 ] } },
{ "type": "Feature", "properties": { "LSOA21CD": "E01014059", "place_type": "Village", "place_name": "St Weonards", "distance_to_lsoa21_centroid_metres": 671 }, "geometry": { "type": "Point", "coordinates": [ -2.7354384, 51.9147868 ] } },
{ "type": "Feature", "properties": { "LSOA21CD": "E01014060", "place_type": "Village", "place_name": "Much Birch", "distance_to_lsoa21_centroid_metres": 304 }, "geometry": { "type": "Point", "coordinates": [ -2.7228042, 51.9714149 ] } },
{ "type": "Feature", "properties": { "LSOA21CD": "E01014079", "place_type": "Village", "place_name": "Madley", "distance_to_lsoa21_centroid_metres": 98 }, "geometry": { "type": "Point", "coordinates": [ -2.8493961, 52.0445728 ] } },
{ "type": "Feature", "properties": { "LSOA21CD": "E01014080", "place_type": "Village", "place_name": "Clehonger", "distance_to_lsoa21_centroid_metres": 33 }, "geometry": { "type": "Point", "coordinates": [ -2.8024658, 52.0336685 ] } },
{ "type": "Feature", "properties": { "LSOA21CD": "E01014081", "place_type": "Village", "place_name": "Sutton St Nicholas", "distance_to_lsoa21_centroid_metres": 168 }, "geometry": { "type": "Point", "coordinates": [ -2.6833653, 52.1069792 ] } },
{ "type": "Feature", "properties": { "LSOA21CD": "E01014082", "place_type": "Village", "place_name": "Marden", "distance_to_lsoa21_centroid_metres": 1041 }, "geometry": { "type": "Point", "coordinates": [ -2.7003977, 52.1240916 ] } },
{ "type": "Feature", "properties": { "LSOA21CD": "E01014096", "place_type": "Village", "place_name": "Brimfield", "distance_to_lsoa21_centroid_metres": 641 }, "geometry": { "type": "Point", "coordinates": [ -2.6971573, 52.3073006 ] } },
{ "type": "Feature", "properties": { "LSOA21CD": "E01014097", "place_type": "Village", "place_name": "Luston", "distance_to_lsoa21_centroid_metres": 936 }, "geometry": { "type": "Point", "coordinates": [ -2.7535907, 52.2630229 ] } },
{ "type": "Feature", "properties": { "LSOA21CD": "E01014098", "place_type": "Village", "place_name": "Kingstone", "distance_to_lsoa21_centroid_metres": 192 }, "geometry": { "type": "Point", "coordinates": [ -2.842977, 52.018846 ] } },
{ "type": "Feature", "properties": { "LSOA21CD": "E01014099", "place_type": "Village", "place_name": "Didley", "distance_to_lsoa21_centroid_metres": 911 }, "geometry": { "type": "Point", "coordinates": [ -2.7994596, 51.9861703 ] } },
{ "type": "Feature", "properties": { "LSOA21CD": "E01014100", "place_type": "Village", "place_name": "Wellington", "distance_to_lsoa21_centroid_metres": 538 }, "geometry": { "type": "Point", "coordinates": [ -2.7408245, 52.1300067 ] } },
{ "type": "Feature", "properties": { "LSOA21CD": "E01014101", "place_type": "Village", "place_name": "Mansel Lacy", "distance_to_lsoa21_centroid_metres": 528 }, "geometry": { "type": "Point", "coordinates": [ -2.8401787, 52.1058388 ] } },
{ "type": "Feature", "properties": { "LSOA21CD": "E01014111", "place_type": "Village", "place_name": "Lilleshall", "distance_to_lsoa21_centroid_metres": 388 }, "geometry": { "type": "Point", "coordinates": [ -2.4001075, 52.736835 ] } },
{ "type": "Feature", "properties": { "LSOA21CD": "E01014112", "place_type": "Village", "place_name": "Church Aston", "distance_to_lsoa21_centroid_metres": 64 }, "geometry": { "type": "Point", "coordinates": [ -2.3796794, 52.7577905 ] } },
{ "type": "Feature", "properties": { "LSOA21CD": "E01014131", "place_type": "Village", "place_name": "Tibberton", "distance_to_lsoa21_centroid_metres": 2743 }, "geometry": { "type": "Point", "coordinates": [ -2.4745, 52.7785479 ] } },
{ "type": "Feature", "properties": { "LSOA21CD": "E01014135", "place_type": "Village", "place_name": "Waters Upton", "distance_to_lsoa21_centroid_metres": 499 }, "geometry": { "type": "Point", "coordinates": [ -2.5456646, 52.7696394 ] } },
{ "type": "Feature", "properties": { "LSOA21CD": "E01014136", "place_type": "Village", "place_name": "High Ercall", "distance_to_lsoa21_centroid_metres": 301 }, "geometry": { "type": "Point", "coordinates": [ -2.6044229, 52.7526957 ] } },
{ "type": "Feature", "properties": { "LSOA21CD": "E01014137", "place_type": "Suburb", "place_name": "Hadley Castle", "distance_to_lsoa21_centroid_metres": 127 }, "geometry": { "type": "Point", "coordinates": [ -2.4869164, 52.7137228 ] } },
{ "type": "Feature", "properties": { "LSOA21CD": "E01014149", "place_type": "Village", "place_name": "Coalbrookdale", "distance_to_lsoa21_centroid_metres": 344 }, "geometry": { "type": "Point", "coordinates": [ -2.4911221, 52.6396813 ] } },
{ "type": "Feature", "properties": { "LSOA21CD": "E01014202", "place_type": "Village", "place_name": "Leaton", "distance_to_lsoa21_centroid_metres": 2858 }, "geometry": { "type": "Point", "coordinates": [ -2.5735228, 52.6977291 ] } },
{ "type": "Feature", "properties": { "LSOA21CD": "E01014204", "place_type": "Suburb", "place_name": "Bratton", "distance_to_lsoa21_centroid_metres": 1357 }, "geometry": { "type": "Point", "coordinates": [ -2.5399672, 52.7204504 ] } },
{ "type": "Feature", "properties": { "LSOA21CD": "E01014496", "place_type": "Suburb", "place_name": "Avonmouth", "distance_to_lsoa21_centroid_metres": 114 }, "geometry": { "type": "Point", "coordinates": [ -2.695544, 51.498926 ] } },
{ "type": "Feature", "properties": { "LSOA21CD": "E01014841", "place_type": "Pub", "place_name": "Cove", "distance_to_lsoa21_centroid_metres": 160 }, "geometry": { "type": "Point", "coordinates": [ -2.9907541, 51.3537584 ] } },
{ "type": "Feature", "properties": { "LSOA21CD": "E01014953", "place_type": "Village", "place_name": "Pilning", "distance_to_lsoa21_centroid_metres": 236 }, "geometry": { "type": "Point", "coordinates": [ -2.6425706, 51.5635483 ] } },
{ "type": "Feature", "properties": { "LSOA21CD": "E01014962", "place_type": "Village", "place_name": "Oldbury on Severn", "distance_to_lsoa21_centroid_metres": 1433 }, "geometry": { "type": "Point", "coordinates": [ -2.5654451, 51.62977 ] } },
{ "type": "Feature", "properties": { "LSOA21CD": "E01014963", "place_type": "Village", "place_name": "Olveston", "distance_to_lsoa21_centroid_metres": 120 }, "geometry": { "type": "Point", "coordinates": [ -2.5761901, 51.579796 ] } },
{ "type": "Feature", "properties": { "LSOA21CD": "E01018308", "place_type": "Village", "place_name": "Great Barrow", "distance_to_lsoa21_centroid_metres": 1738 }, "geometry": { "type": "Point", "coordinates": [ -2.795316, 53.2110738 ] } },
{ "type": "Feature", "properties": { "LSOA21CD": "E01018324", "place_type": "Village", "place_name": "Christleton", "distance_to_lsoa21_centroid_metres": 237 }, "geometry": { "type": "Point", "coordinates": [ -2.834302, 53.1834346 ] } },
{ "type": "Feature", "properties": { "LSOA21CD": "E01018325", "place_type": "Village", "place_name": "Guilden Sutton", "distance_to_lsoa21_centroid_metres": 113 }, "geometry": { "type": "Point", "coordinates": [ -2.8298614, 53.2077799 ] } },
{ "type": "Feature", "properties": { "LSOA21CD": "E01018335", "place_type": "Village", "place_name": "Dodleston", "distance_to_lsoa21_centroid_metres": 1217 }, "geometry": { "type": "Point", "coordinates": [ -2.9557902, 53.1430169 ] } },
{ "type": "Feature", "properties": { "LSOA21CD": "E01018337", "place_type": "Village", "place_name": "Thornton le Moors", "distance_to_lsoa21_centroid_metres": 204 }, "geometry": { "type": "Point", "coordinates": [ -2.8383665, 53.2654451 ] } },
{ "type": "Feature", "properties": { "LSOA21CD": "E01018339", "place_type": "Village", "place_name": "Farndon", "distance_to_lsoa21_centroid_metres": 146 }, "geometry": { "type": "Point", "coordinates": [ -2.8757573, 53.0842541 ] } },
{ "type": "Feature", "properties": { "LSOA21CD": "E01018355", "place_type": "Pub", "place_name": "The Lion", "distance_to_lsoa21_centroid_metres": 77 }, "geometry": { "type": "Point", "coordinates": [ -2.7650846, 53.019935 ] } },
{ "type": "Feature", "properties": { "LSOA21CD": "E01018356", "place_type": "Village", "place_name": "No Man's Heath", "distance_to_lsoa21_centroid_metres": 84 }, "geometry": { "type": "Point", "coordinates": [ -2.7263981, 53.0264929 ] } },
{ "type": "Feature", "properties": { "LSOA21CD": "E01018357", "place_type": "Village", "place_name": "Cuddington Heath", "distance_to_lsoa21_centroid_metres": 1487 }, "geometry": { "type": "Point", "coordinates": [ -2.7891878, 53.0157225 ] } },
{ "type": "Feature", "properties": { "LSOA21CD": "E01018358", "place_type": "Village", "place_name": "Mickle Trafford", "distance_to_lsoa21_centroid_metres": 172 }, "geometry": { "type": "Point", "coordinates": [ -2.8324698, 53.2217842 ] } },
{ "type": "Feature", "properties": { "LSOA21CD": "E01018360", "place_type": "Village", "place_name": "Moston", "distance_to_lsoa21_centroid_metres": 520 }, "geometry": { "type": "Point", "coordinates": [ -2.8985512, 53.2263112 ] } },
{ "type": "Feature", "properties": { "LSOA21CD": "E01018366", "place_type": "Village", "place_name": "Saughall", "distance_to_lsoa21_centroid_metres": 137 }, "geometry": { "type": "Point", "coordinates": [ -2.9540627, 53.222851 ] } },
{ "type": "Feature", "properties": { "LSOA21CD": "E01018367", "place_type": "Village", "place_name": "Shotwick", "distance_to_lsoa21_centroid_metres": 3088 }, "geometry": { "type": "Point", "coordinates": [ -2.995869, 53.2402496 ] } },
{ "type": "Feature", "properties": { "LSOA21CD": "E01018369", "place_type": "Village", "place_name": "Duddon", "distance_to_lsoa21_centroid_metres": 191 }, "geometry": { "type": "Point", "coordinates": [ -2.72823, 53.1776148 ] } },
{ "type": "Feature", "properties": { "LSOA21CD": "E01018370", "place_type": "Village", "place_name": "Oscroft", "distance_to_lsoa21_centroid_metres": 1540 }, "geometry": { "type": "Point", "coordinates": [ -2.7412395, 53.197395 ] } },
{ "type": "Feature", "properties": { "LSOA21CD": "E01018371", "place_type": "Pub", "place_name": "Carriages", "distance_to_lsoa21_centroid_metres": 2128 }, "geometry": { "type": "Point", "coordinates": [ -2.792262437339367, 53.1368968 ] } },
{ "type": "Feature", "properties": { "LSOA21CD": "E01018372", "place_type": "Village", "place_name": "Tattenhall", "distance_to_lsoa21_centroid_metres": 1456 }, "geometry": { "type": "Point", "coordinates": [ -2.7695031, 53.1186798 ] } },
{ "type": "Feature", "properties": { "LSOA21CD": "E01018373", "place_type": "Village", "place_name": "Tilston", "distance_to_lsoa21_centroid_metres": 694 }, "geometry": { "type": "Point", "coordinates": [ -2.808973, 53.0558918 ] } },
{ "type": "Feature", "properties": { "LSOA21CD": "E01018385", "place_type": "Village", "place_name": "Waverton", "distance_to_lsoa21_centroid_metres": 148 }, "geometry": { "type": "Point", "coordinates": [ -2.8147316, 53.1712483 ] } },
{ "type": "Feature", "properties": { "LSOA21CD": "E01018449", "place_type": "Village", "place_name": "Buerton", "distance_to_lsoa21_centroid_metres": 2077 }, "geometry": { "type": "Point", "coordinates": [ -2.4707627, 52.9879075 ] } },
{ "type": "Feature", "properties": { "LSOA21CD": "E01018450", "place_type": "Village", "place_name": "Audlem", "distance_to_lsoa21_centroid_metres": 1090 }, "geometry": { "type": "Point", "coordinates": [ -2.5083459, 52.9887191 ] } },
{ "type": "Feature", "properties": { "LSOA21CD": "E01018458", "place_type": "Pub", "place_name": "Dysart Arms", "distance_to_lsoa21_centroid_metres": 88 }, "geometry": { "type": "Point", "coordinates": [ -2.646348305208861, 53.1184672 ] } },
{ "type": "Feature", "properties": { "LSOA21CD": "E01018481", "place_type": "Village", "place_name": "Bulkeley", "distance_to_lsoa21_centroid_metres": 1994 }, "geometry": { "type": "Point", "coordinates": [ -2.7006679, 53.0860367 ] } },
{ "type": "Feature", "properties": { "LSOA21CD": "E01018514", "place_type": "Village", "place_name": "Wrenbury", "distance_to_lsoa21_centroid_metres": 341 }, "geometry": { "type": "Point", "coordinates": [ -2.6035605, 53.0236436 ] } },
{ "type": "Feature", "properties": { "LSOA21CD": "E01018515", "place_type": "Village", "place_name": "Hough", "distance_to_lsoa21_centroid_metres": 1508 }, "geometry": { "type": "Point", "coordinates": [ -2.4280654, 53.0570255 ] } },
{ "type": "Feature", "properties": { "LSOA21CD": "E01018518", "place_type": "Village", "place_name": "Ness", "distance_to_lsoa21_centroid_metres": 351 }, "geometry": { "type": "Point", "coordinates": [ -3.0487173, 53.2780718 ] } },
{ "type": "Feature", "properties": { "LSOA21CD": "E01018535", "place_type": "Suburb", "place_name": "Clayhill", "distance_to_lsoa21_centroid_metres": 477 }, "geometry": { "type": "Point", "coordinates": [ -3.0581868, 53.3003754 ] } },
{ "type": "Feature", "properties": { "LSOA21CD": "E01018537", "place_type": "Village", "place_name": "Parkgate", "distance_to_lsoa21_centroid_metres": 775 }, "geometry": { "type": "Point", "coordinates": [ -3.0836187, 53.2971886 ] } },
{ "type": "Feature", "properties": { "LSOA21CD": "E01018552", "place_type": "Pub", "place_name": "The Cat", "distance_to_lsoa21_centroid_metres": 258 }, "geometry": { "type": "Point", "coordinates": [ -2.88905262043058, 53.27394165 ] } },
{ "type": "Feature", "properties": { "LSOA21CD": "E01018569", "place_type": "Village", "place_name": "Willaston", "distance_to_lsoa21_centroid_metres": 355 }, "geometry": { "type": "Point", "coordinates": [ -3.0012202, 53.2919922 ] } },
{ "type": "Feature", "properties": { "LSOA21CD": "E01018570", "place_type": "Railway station", "place_name": "Hooton", "distance_to_lsoa21_centroid_metres": 1060 }, "geometry": { "type": "Point", "coordinates": [ -2.9773177, 53.2969936 ] } },
{ "type": "Feature", "properties": { "LSOA21CD": "E01022226", "place_type": "Pub", "place_name": "The Cross Keys", "distance_to_lsoa21_centroid_metres": 100 }, "geometry": { "type": "Point", "coordinates": [ -2.537217321218654, 51.72299185 ] } },
{ "type": "Feature", "properties": { "LSOA21CD": "E01022227", "place_type": "Village", "place_name": "Aylburton", "distance_to_lsoa21_centroid_metres": 571 }, "geometry": { "type": "Point", "coordinates": [ -2.5551236, 51.7141901 ] } },
{ "type": "Feature", "properties": { "LSOA21CD": "E01022228", "place_type": "Pub", "place_name": "The King's Head", "distance_to_lsoa21_centroid_metres": 96 }, "geometry": { "type": "Point", "coordinates": [ -2.4779859, 51.7603253 ] } },
{ "type": "Feature", "properties": { "LSOA21CD": "E01022230", "place_type": "Village", "place_name": "Longhope", "distance_to_lsoa21_centroid_metres": 275 }, "geometry": { "type": "Point", "coordinates": [ -2.4518875, 51.8665688 ] } },
{ "type": "Feature", "properties": { "LSOA21CD": "E01022232", "place_type": "Pub", "place_name": "Rising Sun", "distance_to_lsoa21_centroid_metres": 23 }, "geometry": { "type": "Point", "coordinates": [ -2.5760724, 51.749633 ] } },
{ "type": "Feature", "properties": { "LSOA21CD": "E01022233", "place_type": "Village", "place_name": "Dymock", "distance_to_lsoa21_centroid_metres": 131 }, "geometry": { "type": "Point", "coordinates": [ -2.4392265, 51.9789196 ] } },
{ "type": "Feature", "properties": { "LSOA21CD": "E01022234", "place_type": "Village", "place_name": "Christchurch", "distance_to_lsoa21_centroid_metres": 342 }, "geometry": { "type": "Point", "coordinates": [ -2.6229464, 51.8129502 ] } },
{ "type": "Feature", "properties": { "LSOA21CD": "E01022240", "place_type": "Pub", "place_name": "The Dog House", "distance_to_lsoa21_centroid_metres": 308 }, "geometry": { "type": "Point", "coordinates": [ -2.4996315, 51.8240914 ] } },
{ "type": "Feature", "properties": { "LSOA21CD": "E01022242", "place_type": "Village", "place_name": "Whitecliff", "distance_to_lsoa21_centroid_metres": 1286 }, "geometry": { "type": "Point", "coordinates": [ -2.6289886, 51.7863139 ] } },
{ "type": "Feature", "properties": { "LSOA21CD": "E01022248", "place_type": "Village", "place_name": "Woolaston", "distance_to_lsoa21_centroid_metres": 150 }, "geometry": { "type": "Point", "coordinates": [ -2.5958593, 51.7026472 ] } },
{ "type": "Feature", "properties": { "LSOA21CD": "E01022249", "place_type": "Village", "place_name": "Ruspidge", "distance_to_lsoa21_centroid_metres": 487 }, "geometry": { "type": "Point", "coordinates": [ -2.5056315, 51.8035643 ] } },
{ "type": "Feature", "properties": { "LSOA21CD": "E01022251", "place_type": "Pub", "place_name": "The Malt Shovel Inn", "distance_to_lsoa21_centroid_metres": 85 }, "geometry": { "type": "Point", "coordinates": [ -2.556505, 51.8550012 ] } },
{ "type": "Feature", "properties": { "LSOA21CD": "E01022252", "place_type": "Pub", "place_name": "Swan, Brierley", "distance_to_lsoa21_centroid_metres": 1631 }, "geometry": { "type": "Point", "coordinates": [ -2.5444052, 51.8345113 ] } },
{ "type": "Feature", "properties": { "LSOA21CD": "E01022253", "place_type": "Pub", "place_name": "The Jovial Colliers", "distance_to_lsoa21_centroid_metres": 45 }, "geometry": { "type": "Point", "coordinates": [ -2.577239170652856, 51.8370029 ] } },
{ "type": "Feature", "properties": { "LSOA21CD": "E01022257", "place_type": "Village", "place_name": "Allaston", "distance_to_lsoa21_centroid_metres": 368 }, "geometry": { "type": "Point", "coordinates": [ -2.526673, 51.7387562 ] } },
{ "type": "Feature", "properties": { "LSOA21CD": "E01022259", "place_type": "Village", "place_name": "Abenhall", "distance_to_lsoa21_centroid_metres": 1887 }, "geometry": { "type": "Point", "coordinates": [ -2.4791957, 51.8529493 ] } },
{ "type": "Feature", "properties": { "LSOA21CD": "E01022260", "place_type": "Village", "place_name": "Drybrook", "distance_to_lsoa21_centroid_metres": 211 }, "geometry": { "type": "Point", "coordinates": [ -2.5178183, 51.8558108 ] } },
{ "type": "Feature", "properties": { "LSOA21CD": "E01022263", "place_type": "Village", "place_name": "St Briavels", "distance_to_lsoa21_centroid_metres": 115 }, "geometry": { "type": "Point", "coordinates": [ -2.6398283, 51.7373356 ] } },
{ "type": "Feature", "properties": { "LSOA21CD": "E01022264", "place_type": "Village", "place_name": "Sling", "distance_to_lsoa21_centroid_metres": 226 }, "geometry": { "type": "Point", "coordinates": [ -2.6079088, 51.7670576 ] } },
{ "type": "Feature", "properties": { "LSOA21CD": "E01022265", "place_type": "Village", "place_name": "Newnham on Severn", "distance_to_lsoa21_centroid_metres": 76 }, "geometry": { "type": "Point", "coordinates": [ -2.4523397, 51.804971 ] } },
{ "type": "Feature", "properties": { "LSOA21CD": "E01022267", "place_type": "Pub", "place_name": "Kings Arms", "distance_to_lsoa21_centroid_metres": 142 }, "geometry": { "type": "Point", "coordinates": [ -2.40892053253731, 51.9338747 ] } },
{ "type": "Feature", "properties": { "LSOA21CD": "E01022268", "place_type": "Village", "place_name": "Pillowell", "distance_to_lsoa21_centroid_metres": 260 }, "geometry": { "type": "Point", "coordinates": [ -2.5384357, 51.7552525 ] } },
{ "type": "Feature", "properties": { "LSOA21CD": "E01022269", "place_type": "Village", "place_name": "Yorkley", "distance_to_lsoa21_centroid_metres": 95 }, "geometry": { "type": "Point", "coordinates": [ -2.5298197, 51.761498 ] } },
{ "type": "Feature", "properties": { "LSOA21CD": "E01022274", "place_type": "Village", "place_name": "Woodcroft", "distance_to_lsoa21_centroid_metres": 381 }, "geometry": { "type": "Point", "coordinates": [ -2.6624362, 51.6571556 ] } },
{ "type": "Feature", "properties": { "LSOA21CD": "E01022351", "place_type": "Village", "place_name": "Sharpness", "distance_to_lsoa21_centroid_metres": 136 }, "geometry": { "type": "Point", "coordinates": [ -2.470734, 51.71663 ] } },
{ "type": "Feature", "properties": { "LSOA21CD": "E01028828", "place_type": "Village", "place_name": "Quatt", "distance_to_lsoa21_centroid_metres": 1141 }, "geometry": { "type": "Point", "coordinates": [ -2.3609673, 52.4911694 ] } },
{ "type": "Feature", "properties": { "LSOA21CD": "E01028831", "place_type": "Pub", "place_name": "Ye Olde Punch Bowl Inn", "distance_to_lsoa21_centroid_metres": 964 }, "geometry": { "type": "Point", "coordinates": [ -2.442259, 52.527505 ] } },
{ "type": "Feature", "properties": { "LSOA21CD": "E01028834", "place_type": "Village", "place_name": "Quatford", "distance_to_lsoa21_centroid_metres": 2107 }, "geometry": { "type": "Point", "coordinates": [ -2.3866513, 52.5167641 ] } },
{ "type": "Feature", "properties": { "LSOA21CD": "E01028839", "place_type": "Pub", "place_name": "The Woodbridge Inn", "distance_to_lsoa21_centroid_metres": 2083 }, "geometry": { "type": "Point", "coordinates": [ -2.441107969177491, 52.6149335 ] } },
{ "type": "Feature", "properties": { "LSOA21CD": "E01028841", "place_type": "Pub", "place_name": "The Duke Of York", "distance_to_lsoa21_centroid_metres": 131 }, "geometry": { "type": "Point", "coordinates": [ -2.481970766059298, 52.61189535 ] } },
{ "type": "Feature", "properties": { "LSOA21CD": "E01028843", "place_type": "Village", "place_name": "Cleobury North", "distance_to_lsoa21_centroid_metres": 441 }, "geometry": { "type": "Point", "coordinates": [ -2.555976, 52.4811947 ] } },
{ "type": "Feature", "properties": { "LSOA21CD": "E01028846", "place_type": "Village", "place_name": "Glazeley", "distance_to_lsoa21_centroid_metres": 873 }, "geometry": { "type": "Point", "coordinates": [ -2.4400383, 52.4904571 ] } },
{ "type": "Feature", "properties": { "LSOA21CD": "E01028847", "place_type": "Village", "place_name": "Beckbury", "distance_to_lsoa21_centroid_metres": 1840 }, "geometry": { "type": "Point", "coordinates": [ -2.3491983, 52.6108739 ] } },
{ "type": "Feature", "properties": { "LSOA21CD": "E01028849", "place_type": "Pub", "place_name": "Bache Arms", "distance_to_lsoa21_centroid_metres": 56 }, "geometry": { "type": "Point", "coordinates": [ -2.3827511, 52.4499075 ] } },
{ "type": "Feature", "properties": { "LSOA21CD": "E01028850", "place_type": "Village", "place_name": "Astley Abbotts", "distance_to_lsoa21_centroid_metres": 2697 }, "geometry": { "type": "Point", "coordinates": [ -2.4327457, 52.5627622 ] } },
{ "type": "Feature", "properties": { "LSOA21CD": "E01028851", "place_type": "Village", "place_name": "Bourton", "distance_to_lsoa21_centroid_metres": 3960 }, "geometry": { "type": "Point", "coordinates": [ -2.5974372, 52.5630354 ] } },
{ "type": "Feature", "properties": { "LSOA21CD": "E01028852", "place_type": "Town", "place_name": "Much Wenlock", "distance_to_lsoa21_centroid_metres": 183 }, "geometry": { "type": "Point", "coordinates": [ -2.5578451, 52.5955951 ] } },
{ "type": "Feature", "properties": { "LSOA21CD": "E01028855", "place_type": "Village", "place_name": "The Wyke", "distance_to_lsoa21_centroid_metres": 2055 }, "geometry": { "type": "Point", "coordinates": [ -2.4004544, 52.6575699 ] } },
{ "type": "Feature", "properties": { "LSOA21CD": "E01028858", "place_type": "Pub", "place_name": "Eagle and Serpent", "distance_to_lsoa21_centroid_metres": 870 }, "geometry": { "type": "Point", "coordinates": [ -2.4159694, 52.419052 ] } },
{ "type": "Feature", "properties": { "LSOA21CD": "E01028859", "place_type": "Village", "place_name": "Worfield", "distance_to_lsoa21_centroid_metres": 1004 }, "geometry": { "type": "Point", "coordinates": [ -2.3592541, 52.5604084 ] } },
{ "type": "Feature", "properties": { "LSOA21CD": "E01028860", "place_type": "Village", "place_name": "Baschurch", "distance_to_lsoa21_centroid_metres": 111 }, "geometry": { "type": "Point", "coordinates": [ -2.8538717, 52.7906166 ] } },
{ "type": "Feature", "properties": { "LSOA21CD": "E01028861", "place_type": "Village", "place_name": "Hadnall", "distance_to_lsoa21_centroid_metres": 295 }, "geometry": { "type": "Point", "coordinates": [ -2.7098905, 52.7750408 ] } },
{ "type": "Feature", "properties": { "LSOA21CD": "E01028862", "place_type": "Village", "place_name": "Harmer Hill", "distance_to_lsoa21_centroid_metres": 1093 }, "geometry": { "type": "Point", "coordinates": [ -2.7597925, 52.7957396 ] } },
{ "type": "Feature", "properties": { "LSOA21CD": "E01028863", "place_type": "Village", "place_name": "Cockshutt", "distance_to_lsoa21_centroid_metres": 539 }, "geometry": { "type": "Point", "coordinates": [ -2.8397847, 52.857759 ] } },
{ "type": "Feature", "properties": { "LSOA21CD": "E01028864", "place_type": "Village", "place_name": "Dudleston Heath", "distance_to_lsoa21_centroid_metres": 76 }, "geometry": { "type": "Point", "coordinates": [ -2.9411683, 52.924831 ] } },
{ "type": "Feature", "properties": { "LSOA21CD": "E01028866", "place_type": "Pub", "place_name": "The Red Lion Coaching Inn", "distance_to_lsoa21_centroid_metres": 5 }, "geometry": { "type": "Point", "coordinates": [ -2.889986767487117, 52.907946 ] } },
{ "type": "Feature", "properties": { "LSOA21CD": "E01028868", "place_type": "Village", "place_name": "Cheswardine", "distance_to_lsoa21_centroid_metres": 263 }, "geometry": { "type": "Point", "coordinates": [ -2.418752, 52.8643698 ] } },
{ "type": "Feature", "properties": { "LSOA21CD": "E01028869", "place_type": "Pub", "place_name": "The Falcon Inn", "distance_to_lsoa21_centroid_metres": 848 }, "geometry": { "type": "Point", "coordinates": [ -2.4575723, 52.8382824 ] } },
{ "type": "Feature", "properties": { "LSOA21CD": "E01028870", "place_type": "Village", "place_name": "Marchamley", "distance_to_lsoa21_centroid_metres": 1896 }, "geometry": { "type": "Point", "coordinates": [ -2.6014855, 52.8615674 ] } },
{ "type": "Feature", "properties": { "LSOA21CD": "E01028871", "place_type": "Village", "place_name": "Hodnet", "distance_to_lsoa21_centroid_metres": 1588 }, "geometry": { "type": "Point", "coordinates": [ -2.571483, 52.8533291 ] } },
{ "type": "Feature", "properties": { "LSOA21CD": "E01028872", "place_type": "Village", "place_name": "Tetchill", "distance_to_lsoa21_centroid_metres": 187 }, "geometry": { "type": "Point", "coordinates": [ -2.9075017, 52.8880272 ] } },
{ "type": "Feature", "properties": { "LSOA21CD": "E01028880", "place_type": "Village", "place_name": "Prees", "distance_to_lsoa21_centroid_metres": 156 }, "geometry": { "type": "Point", "coordinates": [ -2.6660017, 52.8970321 ] } },
{ "type": "Feature", "properties": { "LSOA21CD": "E01028881", "place_type": "Village", "place_name": "Prees Higher Heath", "distance_to_lsoa21_centroid_metres": 184 }, "geometry": { "type": "Point", "coordinates": [ -2.6519743, 52.9187147 ] } },
{ "type": "Feature", "properties": { "LSOA21CD": "E01028882", "place_type": "Village", "place_name": "Moreton Say", "distance_to_lsoa21_centroid_metres": 2370 }, "geometry": { "type": "Point", "coordinates": [ -2.5516269, 52.9071961 ] } },
{ "type": "Feature", "properties": { "LSOA21CD": "E01028883", "place_type": "Village", "place_name": "Moreton Corbet", "distance_to_lsoa21_centroid_metres": 1352 }, "geometry": { "type": "Point", "coordinates": [ -2.6535943, 52.8046717 ] } },
{ "type": "Feature", "properties": { "LSOA21CD": "E01028888", "place_type": "Village", "place_name": "Loppington", "distance_to_lsoa21_centroid_metres": 1209 }, "geometry": { "type": "Point", "coordinates": [ -2.7859415, 52.8586514 ] } },
{ "type": "Feature", "properties": { "LSOA21CD": "E01028892", "place_type": "Village", "place_name": "Grindley Brook", "distance_to_lsoa21_centroid_metres": 1698 }, "geometry": { "type": "Point", "coordinates": [ -2.7123964, 52.9833531 ] } },
{ "type": "Feature", "properties": { "LSOA21CD": "E01028893", "place_type": "Village", "place_name": "Prees Heath", "distance_to_lsoa21_centroid_metres": 613 }, "geometry": { "type": "Point", "coordinates": [ -2.6631941, 52.938105 ] } },
{ "type": "Feature", "properties": { "LSOA21CD": "E01028895", "place_type": "Railway station", "place_name": "Whitchurch", "distance_to_lsoa21_centroid_metres": 273 }, "geometry": { "type": "Point", "coordinates": [ -2.6716574, 52.9682221 ] } },
{ "type": "Feature", "properties": { "LSOA21CD": "E01028896", "place_type": "Pub", "place_name": "Crafty Dragon", "distance_to_lsoa21_centroid_metres": 376 }, "geometry": { "type": "Point", "coordinates": [ -2.684200376494575, 52.96800655 ] } },
{ "type": "Feature", "properties": { "LSOA21CD": "E01028898", "place_type": "Village", "place_name": "Coton", "distance_to_lsoa21_centroid_metres": 1421 }, "geometry": { "type": "Point", "coordinates": [ -2.6991297, 52.9048089 ] } },
{ "type": "Feature", "properties": { "LSOA21CD": "E01028899", "place_type": "Village", "place_name": "Woore", "distance_to_lsoa21_centroid_metres": 514 }, "geometry": { "type": "Point", "coordinates": [ -2.4020695, 52.978231 ] } },
{ "type": "Feature", "properties": { "LSOA21CD": "E01028910", "place_type": "Village", "place_name": "Selattyn", "distance_to_lsoa21_centroid_metres": 2946 }, "geometry": { "type": "Point", "coordinates": [ -3.0893738, 52.8985827 ] } },
{ "type": "Feature", "properties": { "LSOA21CD": "E01028913", "place_type": "Village", "place_name": "Kinnerley", "distance_to_lsoa21_centroid_metres": 241 }, "geometry": { "type": "Point", "coordinates": [ -2.9837253, 52.7824793 ] } },
{ "type": "Feature", "properties": { "LSOA21CD": "E01028914", "place_type": "Pub", "place_name": "The Lime Kilns", "distance_to_lsoa21_centroid_metres": 586 }, "geometry": { "type": "Point", "coordinates": [ -3.085416311128309, 52.8086463 ] } },
{ "type": "Feature", "properties": { "LSOA21CD": "E01028915", "place_type": "Village", "place_name": "Pant", "distance_to_lsoa21_centroid_metres": 523 }, "geometry": { "type": "Point", "coordinates": [ -3.0772917, 52.7926427 ] } },
{ "type": "Feature", "properties": { "LSOA21CD": "E01028918", "place_type": "Village", "place_name": "West Felton", "distance_to_lsoa21_centroid_metres": 311 }, "geometry": { "type": "Point", "coordinates": [ -2.973305, 52.8218794 ] } },
{ "type": "Feature", "properties": { "LSOA21CD": "E01028919", "place_type": "Village", "place_name": "Ruyton-XI-Towns", "distance_to_lsoa21_centroid_metres": 177 }, "geometry": { "type": "Point", "coordinates": [ -2.9016899, 52.7939309 ] } },
{ "type": "Feature", "properties": { "LSOA21CD": "E01028922", "place_type": "Village", "place_name": "Maesbury", "distance_to_lsoa21_centroid_metres": 261 }, "geometry": { "type": "Point", "coordinates": [ -3.030512, 52.825446 ] } },
{ "type": "Feature", "properties": { "LSOA21CD": "E01028923", "place_type": "Village", "place_name": "Trefonen", "distance_to_lsoa21_centroid_metres": 117 }, "geometry": { "type": "Point", "coordinates": [ -3.1009496, 52.8340025 ] } },
{ "type": "Feature", "properties": { "LSOA21CD": "E01028925", "place_type": "Pub", "place_name": "The Bridge Inn", "distance_to_lsoa21_centroid_metres": 805 }, "geometry": { "type": "Point", "coordinates": [ -3.0569505, 52.9275245 ] } },
{ "type": "Feature", "properties": { "LSOA21CD": "E01028927", "place_type": "Village", "place_name": "Whittington", "distance_to_lsoa21_centroid_metres": 729 }, "geometry": { "type": "Point", "coordinates": [ -3.0022578, 52.8754011 ] } },
{ "type": "Feature", "properties": { "LSOA21CD": "E01028928", "place_type": "Pub", "place_name": "Ye Olde Boote Inn", "distance_to_lsoa21_centroid_metres": 351 }, "geometry": { "type": "Point", "coordinates": [ -3.002402559195776, 52.87428855 ] } },
{ "type": "Feature", "properties": { "LSOA21CD": "E01028929", "place_type": "Suburb", "place_name": "Herongate", "distance_to_lsoa21_centroid_metres": 607 }, "geometry": { "type": "Point", "coordinates": [ -2.7524586, 52.7256365 ] } },
{ "type": "Feature", "properties": { "LSOA21CD": "E01028936", "place_type": "Village", "place_name": "Bayston Hill", "distance_to_lsoa21_centroid_metres": 72 }, "geometry": { "type": "Point", "coordinates": [ -2.7670522, 52.6737146 ] } },
{ "type": "Feature", "properties": { "LSOA21CD": "E01028950", "place_type": "Village", "place_name": "Dorrington", "distance_to_lsoa21_centroid_metres": 527 }, "geometry": { "type": "Point", "coordinates": [ -2.7735791, 52.622391 ] } },
{ "type": "Feature", "properties": { "LSOA21CD": "E01028954", "place_type": "Village", "place_name": "Annscroft", "distance_to_lsoa21_centroid_metres": 977 }, "geometry": { "type": "Point", "coordinates": [ -2.8105426, 52.6652974 ] } },
{ "type": "Feature", "properties": { "LSOA21CD": "E01028955", "place_type": "Village", "place_name": "Hanwood", "distance_to_lsoa21_centroid_metres": 612 }, "geometry": { "type": "Point", "coordinates": [ -2.8247818, 52.6807902 ] } },
{ "type": "Feature", "properties": { "LSOA21CD": "E01028960", "place_type": "Village", "place_name": "Cardington", "distance_to_lsoa21_centroid_metres": 2059 }, "geometry": { "type": "Point", "coordinates": [ -2.7309517, 52.5526556 ] } },
{ "type": "Feature", "properties": { "LSOA21CD": "E01028961", "place_type": "Village", "place_name": "Acton Burnell", "distance_to_lsoa21_centroid_metres": 244 }, "geometry": { "type": "Point", "coordinates": [ -2.6938816, 52.6133677 ] } },
{ "type": "Feature", "properties": { "LSOA21CD": "E01028969", "place_type": "Village", "place_name": "Nesscliffe", "distance_to_lsoa21_centroid_metres": 297 }, "geometry": { "type": "Point", "coordinates": [ -2.9168255, 52.7683369 ] } },
{ "type": "Feature", "properties": { "LSOA21CD": "E01028970", "place_type": "Village", "place_name": "Bicton", "distance_to_lsoa21_centroid_metres": 405 }, "geometry": { "type": "Point", "coordinates": [ -2.8195393, 52.7310351 ] } },
{ "type": "Feature", "properties": { "LSOA21CD": "E01028971", "place_type": "Village", "place_name": "Bomere Heath", "distance_to_lsoa21_centroid_metres": 129 }, "geometry": { "type": "Point", "coordinates": [ -2.7803761, 52.7720992 ] } },
{ "type": "Feature", "properties": { "LSOA21CD": "E01028975", "place_type": "Village", "place_name": "Minsterley", "distance_to_lsoa21_centroid_metres": 120 }, "geometry": { "type": "Point", "coordinates": [ -2.9245676, 52.6390896 ] } },
{ "type": "Feature", "properties": { "LSOA21CD": "E01028976", "place_type": "Village", "place_name": "Plealey", "distance_to_lsoa21_centroid_metres": 2042 }, "geometry": { "type": "Point", "coordinates": [ -2.8528313, 52.6567467 ] } },
{ "type": "Feature", "properties": { "LSOA21CD": "E01028977", "place_type": "Village", "place_name": "Pontesbury", "distance_to_lsoa21_centroid_metres": 62 }, "geometry": { "type": "Point", "coordinates": [ -2.889181, 52.6481166 ] } },
{ "type": "Feature", "properties": { "LSOA21CD": "E01028978", "place_type": "Village", "place_name": "Halfway House", "distance_to_lsoa21_centroid_metres": 916 }, "geometry": { "type": "Point", "coordinates": [ -2.9748336, 52.6974903 ] } },
{ "type": "Feature", "properties": { "LSOA21CD": "E01028979", "place_type": "Village", "place_name": "Ford", "distance_to_lsoa21_centroid_metres": 195 }, "geometry": { "type": "Point", "coordinates": [ -2.8679355, 52.7169678 ] } },
{ "type": "Feature", "properties": { "LSOA21CD": "E01028980", "place_type": "Village", "place_name": "Cressage", "distance_to_lsoa21_centroid_metres": 529 }, "geometry": { "type": "Point", "coordinates": [ -2.602055, 52.6323185 ] } },
{ "type": "Feature", "properties": { "LSOA21CD": "E01028990", "place_type": "Village", "place_name": "Wall under Heywood", "distance_to_lsoa21_centroid_metres": 464 }, "geometry": { "type": "Point", "coordinates": [ -2.7251306, 52.5285803 ] } },
{ "type": "Feature", "properties": { "LSOA21CD": "E01028993", "place_type": "Village", "place_name": "Bitterley", "distance_to_lsoa21_centroid_metres": 1143 }, "geometry": { "type": "Point", "coordinates": [ -2.643419, 52.3935418 ] } },
{ "type": "Feature", "properties": { "LSOA21CD": "E01028994", "place_type": "Village", "place_name": "Bucknell", "distance_to_lsoa21_centroid_metres": 365 }, "geometry": { "type": "Point", "coordinates": [ -2.9512644, 52.3606416 ] } },
{ "type": "Feature", "properties": { "LSOA21CD": "E01028995", "place_type": "Village", "place_name": "Burford", "distance_to_lsoa21_centroid_metres": 526 }, "geometry": { "type": "Point", "coordinates": [ -2.5990158, 52.3155171 ] } },
{ "type": "Feature", "properties": { "LSOA21CD": "E01028996", "place_type": "Village", "place_name": "Ashford Carbonell", "distance_to_lsoa21_centroid_metres": 945 }, "geometry": { "type": "Point", "coordinates": [ -2.6982487, 52.332159 ] } },
{ "type": "Feature", "properties": { "LSOA21CD": "E01028997", "place_type": "Pub", "place_name": "Old Coppers Malt House", "distance_to_lsoa21_centroid_metres": 445 }, "geometry": { "type": "Point", "coordinates": [ -2.8075531, 52.5391961 ] } },
{ "type": "Feature", "properties": { "LSOA21CD": "E01028998", "place_type": "Railway station", "place_name": "Church Stretton", "distance_to_lsoa21_centroid_metres": 363 }, "geometry": { "type": "Point", "coordinates": [ -2.8036843, 52.5373034 ] } },
{ "type": "Feature", "properties": { "LSOA21CD": "E01028999", "place_type": "Village", "place_name": "Cleehill", "distance_to_lsoa21_centroid_metres": 357 }, "geometry": { "type": "Point", "coordinates": [ -2.5994661, 52.3749503 ] } },
{ "type": "Feature", "properties": { "LSOA21CD": "E01029000", "place_type": "Village", "place_name": "Doddington", "distance_to_lsoa21_centroid_metres": 217 }, "geometry": { "type": "Point", "coordinates": [ -2.5647326, 52.383269 ] } },
{ "type": "Feature", "properties": { "LSOA21CD": "E01029001", "place_type": "Village", "place_name": "Neen Sollars", "distance_to_lsoa21_centroid_metres": 3464 }, "geometry": { "type": "Point", "coordinates": [ -2.4990273, 52.3478807 ] } },
{ "type": "Feature", "properties": { "LSOA21CD": "E01029003", "place_type": "Town", "place_name": "Clun", "distance_to_lsoa21_centroid_metres": 508 }, "geometry": { "type": "Point", "coordinates": [ -3.0300584, 52.4211807 ] } },
{ "type": "Feature", "properties": { "LSOA21CD": "E01029005", "place_type": "Village", "place_name": "Kempton", "distance_to_lsoa21_centroid_metres": 1007 }, "geometry": { "type": "Point", "coordinates": [ -2.9436518, 52.4410925 ] } },
{ "type": "Feature", "properties": { "LSOA21CD": "E01029012", "place_type": "Village", "place_name": "Rocks Green", "distance_to_lsoa21_centroid_metres": 838 }, "geometry": { "type": "Point", "coordinates": [ -2.7002698, 52.3773704 ] } },
{ "type": "Feature", "properties": { "LSOA21CD": "E01029013", "place_type": "Town", "place_name": "Craven Arms", "distance_to_lsoa21_centroid_metres": 114 }, "geometry": { "type": "Point", "coordinates": [ -2.8356405, 52.439652 ] } },
{ "type": "Feature", "properties": { "LSOA21CD": "E01029016", "place_type": "Village", "place_name": "Cheney Longville", "distance_to_lsoa21_centroid_metres": 105 }, "geometry": { "type": "Point", "coordinates": [ -2.8539903, 52.4584692 ] } },
{ "type": "Feature", "properties": { "LSOA21CD": "E01029569", "place_type": "Village", "place_name": "Mucklestone", "distance_to_lsoa21_centroid_metres": 1634 }, "geometry": { "type": "Point", "coordinates": [ -2.4097519, 52.93271 ] } },
{ "type": "Feature", "properties": { "LSOA21CD": "E01029571", "place_type": "Village", "place_name": "Ashley", "distance_to_lsoa21_centroid_metres": 799 }, "geometry": { "type": "Point", "coordinates": [ -2.356694, 52.9238863 ] } },
{ "type": "Feature", "properties": { "LSOA21CD": "E01029696", "place_type": "Village", "place_name": "Adbaston", "distance_to_lsoa21_centroid_metres": 2579 }, "geometry": { "type": "Point", "coordinates": [ -2.3536572, 52.8490289 ] } },
{ "type": "Feature", "properties": { "LSOA21CD": "E01029708", "place_type": "Pub", "place_name": "The Plough", "distance_to_lsoa21_centroid_metres": 316 }, "geometry": { "type": "Point", "coordinates": [ -2.3021331, 52.8229681 ] } },
{ "type": "Feature", "properties": { "LSOA21CD": "E01032179", "place_type": "Village", "place_name": "Alfrick", "distance_to_lsoa21_centroid_metres": 936 }, "geometry": { "type": "Point", "coordinates": [ -2.3685629, 52.1754374 ] } },
{ "type": "Feature", "properties": { "LSOA21CD": "E01032193", "place_type": "Village", "place_name": "Mamble", "distance_to_lsoa21_centroid_metres": 1383 }, "geometry": { "type": "Point", "coordinates": [ -2.4584774, 52.3409207 ] } },
{ "type": "Feature", "properties": { "LSOA21CD": "E01032212", "place_type": "Village", "place_name": "Clifton upon Teme", "distance_to_lsoa21_centroid_metres": 649 }, "geometry": { "type": "Point", "coordinates": [ -2.4219341, 52.252042 ] } },
{ "type": "Feature", "properties": { "LSOA21CD": "E01032213", "place_type": "Pub", "place_name": "The Fountain Inn", "distance_to_lsoa21_centroid_metres": 497 }, "geometry": { "type": "Point", "coordinates": [ -2.600324959354384, 52.2980017 ] } },
{ "type": "Feature", "properties": { "LSOA21CD": "E01032223", "place_type": "Village", "place_name": "Great Witley", "distance_to_lsoa21_centroid_metres": 685 }, "geometry": { "type": "Point", "coordinates": [ -2.3571498, 52.291318 ] } },
{ "type": "Feature", "properties": { "LSOA21CD": "E01032472", "place_type": "Village", "place_name": "Callow Hill", "distance_to_lsoa21_centroid_metres": 660 }, "geometry": { "type": "Point", "coordinates": [ -2.373801, 52.3606661 ] } },
{ "type": "Feature", "properties": { "LSOA21CD": "E01032473", "place_type": "Pub", "place_name": "The Plough", "distance_to_lsoa21_centroid_metres": 70 }, "geometry": { "type": "Point", "coordinates": [ -2.397832800255729, 52.36702635 ] } },
{ "type": "Feature", "properties": { "LSOA21CD": "E01033530", "place_type": "Village", "place_name": "Brockton", "distance_to_lsoa21_centroid_metres": 1696 }, "geometry": { "type": "Point", "coordinates": [ -3.0107948, 52.633944 ] } },
{ "type": "Feature", "properties": { "LSOA21CD": "E01034677", "place_type": "Village", "place_name": "Ravensmoor", "distance_to_lsoa21_centroid_metres": 680 }, "geometry": { "type": "Point", "coordinates": [ -2.5671843, 53.05181 ] } },
{ "type": "Feature", "properties": { "LSOA21CD": "E01035057", "place_type": "Pub", "place_name": "The Red Lion", "distance_to_lsoa21_centroid_metres": 2337 }, "geometry": { "type": "Point", "coordinates": [ -2.49859396512872, 52.85632335 ] } },
{ "type": "Feature", "properties": { "LSOA21CD": "E01035058", "place_type": "Village", "place_name": "Stoke Heath", "distance_to_lsoa21_centroid_metres": 882 }, "geometry": { "type": "Point", "coordinates": [ -2.5219018, 52.8617331 ] } },
{ "type": "Feature", "properties": { "LSOA21CD": "E01035067", "place_type": "Village", "place_name": "Uffington", "distance_to_lsoa21_centroid_metres": 1372 }, "geometry": { "type": "Point", "coordinates": [ -2.6988937, 52.7197588 ] } },
{ "type": "Feature", "properties": { "LSOA21CD": "E01035068", "place_type": "Village", "place_name": "Cross Houses", "distance_to_lsoa21_centroid_metres": 128 }, "geometry": { "type": "Point", "coordinates": [ -2.6833854, 52.6627197 ] } },
{ "type": "Feature", "properties": { "LSOA21CD": "E01035069", "place_type": "Village", "place_name": "Sheriffhales", "distance_to_lsoa21_centroid_metres": 2221 }, "geometry": { "type": "Point", "coordinates": [ -2.3552638, 52.7092626 ] } },
{ "type": "Feature", "properties": { "LSOA21CD": "E01035071", "place_type": "Village", "place_name": "Shelve", "distance_to_lsoa21_centroid_metres": 3176 }, "geometry": { "type": "Point", "coordinates": [ -2.9804313, 52.5845128 ] } },
{ "type": "Feature", "properties": { "LSOA21CD": "E01035072", "place_type": "Village", "place_name": "Diddlebury", "distance_to_lsoa21_centroid_metres": 1367 }, "geometry": { "type": "Point", "coordinates": [ -2.7299173, 52.4648733 ] } },
{ "type": "Feature", "properties": { "LSOA21CD": "E01035381", "place_type": "Village", "place_name": "Huntington", "distance_to_lsoa21_centroid_metres": 30 }, "geometry": { "type": "Point", "coordinates": [ -2.8656287, 53.1754796 ] } },
{ "type": "Feature", "properties": { "LSOA21CD": "W01000004", "place_type": "Village", "place_name": "Pentrefelin", "distance_to_lsoa21_centroid_metres": 924 }, "geometry": { "type": "Point", "coordinates": [ -4.3491312, 53.4019055 ] } },
{ "type": "Feature", "properties": { "LSOA21CD": "W01000005", "place_type": "Town", "place_name": "Beaumaris", "distance_to_lsoa21_centroid_metres": 368 }, "geometry": { "type": "Point", "coordinates": [ -4.0920538, 53.262963 ] } },
{ "type": "Feature", "properties": { "LSOA21CD": "W01000006", "place_type": "Village", "place_name": "Bodffordd", "distance_to_lsoa21_centroid_metres": 244 }, "geometry": { "type": "Point", "coordinates": [ -4.3593894, 53.2640219 ] } },
{ "type": "Feature", "properties": { "LSOA21CD": "W01000007", "place_type": "Village", "place_name": "Bethel", "distance_to_lsoa21_centroid_metres": 1693 }, "geometry": { "type": "Point", "coordinates": [ -4.4013875, 53.2066749 ] } },
{ "type": "Feature", "properties": { "LSOA21CD": "W01000009", "place_type": "Village", "place_name": "Gwalchmai", "distance_to_lsoa21_centroid_metres": 669 }, "geometry": { "type": "Point", "coordinates": [ -4.4149931, 53.2571372 ] } },
{ "type": "Feature", "properties": { "LSOA21CD": "W01000010", "place_type": "Village", "place_name": "Tynygongl", "distance_to_lsoa21_centroid_metres": 366 }, "geometry": { "type": "Point", "coordinates": [ -4.2390787, 53.319331 ] } },
{ "type": "Feature", "properties": { "LSOA21CD": "W01000012", "place_type": "Pub", "place_name": "The Railway", "distance_to_lsoa21_centroid_metres": 172 }, "geometry": { "type": "Point", "coordinates": [ -4.3138606, 53.2559883 ] } },
{ "type": "Feature", "properties": { "LSOA21CD": "W01000013", "place_type": "Pub", "place_name": "Pen y Cefn", "distance_to_lsoa21_centroid_metres": 207 }, "geometry": { "type": "Point", "coordinates": [ -4.1507227, 53.2435861 ] } },
{ "type": "Feature", "properties": { "LSOA21CD": "W01000014", "place_type": "Town", "place_name": "Llangefni", "distance_to_lsoa21_centroid_metres": 486 }, "geometry": { "type": "Point", "coordinates": [ -4.3114568, 53.2560986 ] } },
{ "type": "Feature", "properties": { "LSOA21CD": "W01000018", "place_type": "Village", "place_name": "Cemaes", "distance_to_lsoa21_centroid_metres": 199 }, "geometry": { "type": "Point", "coordinates": [ -4.4537724, 53.4127209 ] } },
{ "type": "Feature", "properties": { "LSOA21CD": "W01000019", "place_type": "Village", "place_name": "Benllech", "distance_to_lsoa21_centroid_metres": 703 }, "geometry": { "type": "Point", "coordinates": [ -4.2205614, 53.321191 ] } },
{ "type": "Feature", "properties": { "LSOA21CD": "W01000021", "place_type": "Village", "place_name": "Penysarn", "distance_to_lsoa21_centroid_metres": 450 }, "geometry": { "type": "Point", "coordinates": [ -4.3160078, 53.3879006 ] } },
{ "type": "Feature", "properties": { "LSOA21CD": "W01000022", "place_type": "Village", "place_name": "Llanfaethlu", "distance_to_lsoa21_centroid_metres": 161 }, "geometry": { "type": "Point", "coordinates": [ -4.5334139, 53.3511233 ] } },
{ "type": "Feature", "properties": { "LSOA21CD": "W01000023", "place_type": "Village", "place_name": "Bodedern", "distance_to_lsoa21_centroid_metres": 231 }, "geometry": { "type": "Point", "coordinates": [ -4.5036355, 53.2942327 ] } },
{ "type": "Feature", "properties": { "LSOA21CD": "W01000025", "place_type": "Village", "place_name": "Gaerwen", "distance_to_lsoa21_centroid_metres": 175 }, "geometry": { "type": "Point", "coordinates": [ -4.2733853, 53.2234878 ] } },
{ "type": "Feature", "properties": { "LSOA21CD": "W01000026", "place_type": "Village", "place_name": "Llangoed", "distance_to_lsoa21_centroid_metres": 156 }, "geometry": { "type": "Point", "coordinates": [ -4.0872141, 53.2930792 ] } },
{ "type": "Feature", "properties": { "LSOA21CD": "W01000027", "place_type": "Village", "place_name": "Brynsiencyn", "distance_to_lsoa21_centroid_metres": 504 }, "geometry": { "type": "Point", "coordinates": [ -4.2702391, 53.1803589 ] } },
{ "type": "Feature", "properties": { "LSOA21CD": "W01000028", "place_type": "Village", "place_name": "Llanerchymedd", "distance_to_lsoa21_centroid_metres": 245 }, "geometry": { "type": "Point", "coordinates": [ -4.3769903, 53.3285599 ] } },
{ "type": "Feature", "properties": { "LSOA21CD": "W01000031", "place_type": "Village", "place_name": "Llanfechell", "distance_to_lsoa21_centroid_metres": 431 }, "geometry": { "type": "Point", "coordinates": [ -4.4529096, 53.3929764 ] } },
{ "type": "Feature", "properties": { "LSOA21CD": "W01000035", "place_type": "Village", "place_name": "Pentraeth", "distance_to_lsoa21_centroid_metres": 298 }, "geometry": { "type": "Point", "coordinates": [ -4.2145365, 53.2816608 ] } },
{ "type": "Feature", "properties": { "LSOA21CD": "W01000038", "place_type": "Village", "place_name": "Dwyran", "distance_to_lsoa21_centroid_metres": 948 }, "geometry": { "type": "Point", "coordinates": [ -4.3230048, 53.1652234 ] } },
{ "type": "Feature", "properties": { "LSOA21CD": "W01000040", "place_type": "Village", "place_name": "Trearddur", "distance_to_lsoa21_centroid_metres": 770 }, "geometry": { "type": "Point", "coordinates": [ -4.6152195, 53.2795531 ] } },
{ "type": "Feature", "properties": { "LSOA21CD": "W01000044", "place_type": "Village", "place_name": "Llanynghenedl", "distance_to_lsoa21_centroid_metres": 2692 }, "geometry": { "type": "Point", "coordinates": [ -4.5286597, 53.3005281 ] } },
{ "type": "Feature", "properties": { "LSOA21CD": "W01000047", "place_type": "Village", "place_name": "Abererch", "distance_to_lsoa21_centroid_metres": 1759 }, "geometry": { "type": "Point", "coordinates": [ -4.3809067, 52.9032727 ] } },
{ "type": "Feature", "properties": { "LSOA21CD": "W01000050", "place_type": "Village", "place_name": "Tal-y-bont", "distance_to_lsoa21_centroid_metres": 168 }, "geometry": { "type": "Point", "coordinates": [ -4.0913179, 53.2150222 ] } },
{ "type": "Feature", "properties": { "LSOA21CD": "W01000053", "place_type": "Village", "place_name": "Cwm-y-glo", "distance_to_lsoa21_centroid_metres": 1180 }, "geometry": { "type": "Point", "coordinates": [ -4.1660432, 53.1408596 ] } },
{ "type": "Feature", "properties": { "LSOA21CD": "W01000054", "place_type": "Village", "place_name": "Y Bontnewydd", "distance_to_lsoa21_centroid_metres": 234 }, "geometry": { "type": "Point", "coordinates": [ -4.2668097, 53.1141055 ] } },
{ "type": "Feature", "properties": { "LSOA21CD": "W01000056", "place_type": "Railway station", "place_name": "Blaenau Ffestiniog", "distance_to_lsoa21_centroid_metres": 365 }, "geometry": { "type": "Point", "coordinates": [ -3.9385096, 52.9947059 ] } },
{ "type": "Feature", "properties": { "LSOA21CD": "W01000057", "place_type": "Village", "place_name": "Llanfachreth", "distance_to_lsoa21_centroid_metres": 1689 }, "geometry": { "type": "Point", "coordinates": [ -3.8489808, 52.7856291 ] } },
{ "type": "Feature", "properties": { "LSOA21CD": "W01000060", "place_type": "Village", "place_name": "Aberangell", "distance_to_lsoa21_centroid_metres": 3331 }, "geometry": { "type": "Point", "coordinates": [ -3.7092328, 52.6761994 ] } },
{ "type": "Feature", "properties": { "LSOA21CD": "W01000061", "place_type": "Town", "place_name": "Cricieth \/ Criccieth", "distance_to_lsoa21_centroid_metres": 129 }, "geometry": { "type": "Point", "coordinates": [ -4.2332414, 52.9206106 ] } },
{ "type": "Feature", "properties": { "LSOA21CD": "W01000063", "place_type": "Village", "place_name": "Deiniolen", "distance_to_lsoa21_centroid_metres": 156 }, "geometry": { "type": "Point", "coordinates": [ -4.1254091, 53.1465515 ] } },
{ "type": "Feature", "properties": { "LSOA21CD": "W01000066", "place_type": "Village", "place_name": "Dolbenmaen", "distance_to_lsoa21_centroid_metres": 977 }, "geometry": { "type": "Point", "coordinates": [ -4.2261866, 52.9656987 ] } },
{ "type": "Feature", "properties": { "LSOA21CD": "W01000067", "place_type": "Pub", "place_name": "The Stag Inn", "distance_to_lsoa21_centroid_metres": 13 }, "geometry": { "type": "Point", "coordinates": [ -3.8852297, 52.7439519 ] } },
{ "type": "Feature", "properties": { "LSOA21CD": "W01000070", "place_type": "Village", "place_name": "Efailnewydd", "distance_to_lsoa21_centroid_metres": 739 }, "geometry": { "type": "Point", "coordinates": [ -4.4524036, 52.8958812 ] } },
{ "type": "Feature", "properties": { "LSOA21CD": "W01000073", "place_type": "Village", "place_name": "Y Groeslon", "distance_to_lsoa21_centroid_metres": 92 }, "geometry": { "type": "Point", "coordinates": [ -4.2775957, 53.0775016 ] } },
{ "type": "Feature", "properties": { "LSOA21CD": "W01000074", "place_type": "Railway station", "place_name": "Harlech", "distance_to_lsoa21_centroid_metres": 394 }, "geometry": { "type": "Point", "coordinates": [ -4.1092654, 52.861755 ] } },
{ "type": "Feature", "properties": { "LSOA21CD": "W01000078", "place_type": "Village", "place_name": "Trefor", "distance_to_lsoa21_centroid_metres": 950 }, "geometry": { "type": "Point", "coordinates": [ -4.4265353, 52.9930452 ] } },
{ "type": "Feature", "properties": { "LSOA21CD": "W01000080", "place_type": "Village", "place_name": "Llanbedrog", "distance_to_lsoa21_centroid_metres": 471 }, "geometry": { "type": "Point", "coordinates": [ -4.4869757, 52.8587079 ] } },
{ "type": "Feature", "properties": { "LSOA21CD": "W01000081", "place_type": "Town", "place_name": "Llanberis", "distance_to_lsoa21_centroid_metres": 192 }, "geometry": { "type": "Point", "coordinates": [ -4.1277481, 53.1212762 ] } },
{ "type": "Feature", "properties": { "LSOA21CD": "W01000082", "place_type": "Village", "place_name": "Cefn-ddwysarn", "distance_to_lsoa21_centroid_metres": 981 }, "geometry": { "type": "Point", "coordinates": [ -3.5389749, 52.9340241 ] } },
{ "type": "Feature", "properties": { "LSOA21CD": "W01000083", "place_type": "Village", "place_name": "Llanuwchllyn", "distance_to_lsoa21_centroid_metres": 1888 }, "geometry": { "type": "Point", "coordinates": [ -3.6739107, 52.8587405 ] } },
{ "type": "Feature", "properties": { "LSOA21CD": "W01000084", "place_type": "Village", "place_name": "Mynytho", "distance_to_lsoa21_centroid_metres": 313 }, "geometry": { "type": "Point", "coordinates": [ -4.5230986, 52.8476971 ] } },
{ "type": "Feature", "properties": { "LSOA21CD": "W01000085", "place_type": "Railway station", "place_name": "Fairbourne", "distance_to_lsoa21_centroid_metres": 1020 }, "geometry": { "type": "Point", "coordinates": [ -4.0490344, 52.6959804 ] } },
{ "type": "Feature", "properties": { "LSOA21CD": "W01000086", "place_type": "Village", "place_name": "Llanllyfni", "distance_to_lsoa21_centroid_metres": 364 }, "geometry": { "type": "Point", "coordinates": [ -4.2821911, 53.0423018 ] } },
{ "type": "Feature", "properties": { "LSOA21CD": "W01000088", "place_type": "Village", "place_name": "Rhostryfan", "distance_to_lsoa21_centroid_metres": 88 }, "geometry": { "type": "Point", "coordinates": [ -4.2476335, 53.0960405 ] } },
{ "type": "Feature", "properties": { "LSOA21CD": "W01000089", "place_type": "Village", "place_name": "Chwilog", "distance_to_lsoa21_centroid_metres": 971 }, "geometry": { "type": "Point", "coordinates": [ -4.3296818, 52.9194526 ] } },
{ "type": "Feature", "properties": { "LSOA21CD": "W01000094", "place_type": "Village", "place_name": "Morfa Nefyn", "distance_to_lsoa21_centroid_metres": 191 }, "geometry": { "type": "Point", "coordinates": [ -4.5505577, 52.9328651 ] } },
{ "type": "Feature", "properties": { "LSOA21CD": "W01000095", "place_type": "Pub", "place_name": "Yr Heliwr", "distance_to_lsoa21_centroid_metres": 31 }, "geometry": { "type": "Point", "coordinates": [ -4.52006886959591, 52.93509015 ] } },
{ "type": "Feature", "properties": { "LSOA21CD": "W01000099", "place_type": "Village", "place_name": "Penisarwaun", "distance_to_lsoa21_centroid_metres": 922 }, "geometry": { "type": "Point", "coordinates": [ -4.16113, 53.1535408 ] } },
{ "type": "Feature", "properties": { "LSOA21CD": "W01000100", "place_type": "Village", "place_name": "Llanfrothen", "distance_to_lsoa21_centroid_metres": 2047 }, "geometry": { "type": "Point", "coordinates": [ -4.0494094, 52.9509839 ] } },
{ "type": "Feature", "properties": { "LSOA21CD": "W01000101", "place_type": "Village", "place_name": "Penrhyndeudraeth", "distance_to_lsoa21_centroid_metres": 474 }, "geometry": { "type": "Point", "coordinates": [ -4.0668694, 52.9300385 ] } },
{ "type": "Feature", "properties": { "LSOA21CD": "W01000102", "place_type": "Village", "place_name": "Penrhos Garnedd", "distance_to_lsoa21_centroid_metres": 307 }, "geometry": { "type": "Point", "coordinates": [ -4.1634876, 53.2095484 ] } },
{ "type": "Feature", "properties": { "LSOA21CD": "W01000103", "place_type": "Village", "place_name": "Caerhun", "distance_to_lsoa21_centroid_metres": 967 }, "geometry": { "type": "Point", "coordinates": [ -4.1357904, 53.1989406 ] } },
{ "type": "Feature", "properties": { "LSOA21CD": "W01000104", "place_type": "Village", "place_name": "Pen-y-groes", "distance_to_lsoa21_centroid_metres": 34 }, "geometry": { "type": "Point", "coordinates": [ -4.2834874, 53.0540164 ] } },
{ "type": "Feature", "properties": { "LSOA21CD": "W01000105", "place_type": "Railway station", "place_name": "Porthmadog", "distance_to_lsoa21_centroid_metres": 257 }, "geometry": { "type": "Point", "coordinates": [ -4.1353065, 52.930988 ] } },
{ "type": "Feature", "properties": { "LSOA21CD": "W01000106", "place_type": "Town", "place_name": "Porthmadog", "distance_to_lsoa21_centroid_metres": 739 }, "geometry": { "type": "Point", "coordinates": [ -4.129694, 52.9256029 ] } },
{ "type": "Feature", "properties": { "LSOA21CD": "W01000107", "place_type": "Village", "place_name": "Tremadog", "distance_to_lsoa21_centroid_metres": 151 }, "geometry": { "type": "Point", "coordinates": [ -4.1414809, 52.9396481 ] } },
{ "type": "Feature", "properties": { "LSOA21CD": "W01000108", "place_type": "Pub", "place_name": "The Boathouse", "distance_to_lsoa21_centroid_metres": 9 }, "geometry": { "type": "Point", "coordinates": [ -4.4173084, 52.8897471 ] } },
{ "type": "Feature", "properties": { "LSOA21CD": "W01000111", "place_type": "Town", "place_name": "Caernarfon", "distance_to_lsoa21_centroid_metres": 645 }, "geometry": { "type": "Point", "coordinates": [ -4.2769751, 53.1394364 ] } },
{ "type": "Feature", "properties": { "LSOA21CD": "W01000112", "place_type": "Village", "place_name": "Tal-y-sarn", "distance_to_lsoa21_centroid_metres": 466 }, "geometry": { "type": "Point", "coordinates": [ -4.2569674, 53.052536 ] } },
{ "type": "Feature", "properties": { "LSOA21CD": "W01000113", "place_type": "Pub", "place_name": "The Wynne's Arms", "distance_to_lsoa21_centroid_metres": 340 }, "geometry": { "type": "Point", "coordinates": [ -3.929975268888386, 52.98165475 ] } },
{ "type": "Feature", "properties": { "LSOA21CD": "W01000114", "place_type": "Village", "place_name": "Trawsfynydd", "distance_to_lsoa21_centroid_metres": 370 }, "geometry": { "type": "Point", "coordinates": [ -3.9238036, 52.901056 ] } },
{ "type": "Feature", "properties": { "LSOA21CD": "W01000115", "place_type": "Village", "place_name": "Tregarth", "distance_to_lsoa21_centroid_metres": 214 }, "geometry": { "type": "Point", "coordinates": [ -4.0904847, 53.1902945 ] } },
{ "type": "Feature", "properties": { "LSOA21CD": "W01000116", "place_type": "Railway station", "place_name": "Tywyn", "distance_to_lsoa21_centroid_metres": 217 }, "geometry": { "type": "Point", "coordinates": [ -4.0933648, 52.5853794 ] } },
{ "type": "Feature", "properties": { "LSOA21CD": "W01000117", "place_type": "Town", "place_name": "Tywyn", "distance_to_lsoa21_centroid_metres": 275 }, "geometry": { "type": "Point", "coordinates": [ -4.0855906, 52.5861123 ] } },
{ "type": "Feature", "properties": { "LSOA21CD": "W01000118", "place_type": "Village", "place_name": "Y Waunfawr", "distance_to_lsoa21_centroid_metres": 532 }, "geometry": { "type": "Point", "coordinates": [ -4.2005357, 53.1096687 ] } },
{ "type": "Feature", "properties": { "LSOA21CD": "W01000119", "place_type": "Pub", "place_name": "Garddfon Inn", "distance_to_lsoa21_centroid_metres": 126 }, "geometry": { "type": "Point", "coordinates": [ -4.2107896, 53.1841135 ] } },
{ "type": "Feature", "properties": { "LSOA21CD": "W01000121", "place_type": "Railway station", "place_name": "Pont-y-Pant", "distance_to_lsoa21_centroid_metres": 1745 }, "geometry": { "type": "Point", "coordinates": [ -3.8628141, 53.0651056 ] } },
{ "type": "Feature", "properties": { "LSOA21CD": "W01000122", "place_type": "Village", "place_name": "Betws-yn-Rhos", "distance_to_lsoa21_centroid_metres": 537 }, "geometry": { "type": "Point", "coordinates": [ -3.6398546, 53.2479674 ] } },
{ "type": "Feature", "properties": { "LSOA21CD": "W01000123", "place_type": "Pub", "place_name": "Llanfair Arms", "distance_to_lsoa21_centroid_metres": 125 }, "geometry": { "type": "Point", "coordinates": [ -3.9743096, 53.2520768 ] } },
{ "type": "Feature", "properties": { "LSOA21CD": "W01000124", "place_type": "Village", "place_name": "Ty'n y Groes", "distance_to_lsoa21_centroid_metres": 675 }, "geometry": { "type": "Point", "coordinates": [ -3.8378173, 53.2277772 ] } },
{ "type": "Feature", "properties": { "LSOA21CD": "W01000125", "place_type": "Village", "place_name": "Dwygyfylchi", "distance_to_lsoa21_centroid_metres": 240 }, "geometry": { "type": "Point", "coordinates": [ -3.9026731, 53.2764613 ] } },
{ "type": "Feature", "properties": { "LSOA21CD": "W01000129", "place_type": "Village", "place_name": "Conwy Marina Village", "distance_to_lsoa21_centroid_metres": 420 }, "geometry": { "type": "Point", "coordinates": [ -3.8417375, 53.2906051 ] } },
{ "type": "Feature", "properties": { "LSOA21CD": "W01000134", "place_type": "Railway station", "place_name": "Llanrwst", "distance_to_lsoa21_centroid_metres": 277 }, "geometry": { "type": "Point", "coordinates": [ -3.7948023, 53.1391885 ] } },
{ "type": "Feature", "properties": { "LSOA21CD": "W01000137", "place_type": "Village", "place_name": "Eglwys-bach", "distance_to_lsoa21_centroid_metres": 1218 }, "geometry": { "type": "Point", "coordinates": [ -3.7929819, 53.2178906 ] } },
{ "type": "Feature", "properties": { "LSOA21CD": "W01000140", "place_type": "Town", "place_name": "Abergele", "distance_to_lsoa21_centroid_metres": 366 }, "geometry": { "type": "Point", "coordinates": [ -3.5810655, 53.2840692 ] } },
{ "type": "Feature", "properties": { "LSOA21CD": "W01000147", "place_type": "Pub", "place_name": "Llandudno Cricket Club", "distance_to_lsoa21_centroid_metres": 303 }, "geometry": { "type": "Point", "coordinates": [ -3.8388449, 53.31948205 ] } },
{ "type": "Feature", "properties": { "LSOA21CD": "W01000153", "place_type": "Village", "place_name": "Llanddulas", "distance_to_lsoa21_centroid_metres": 86 }, "geometry": { "type": "Point", "coordinates": [ -3.6430076, 53.288084 ] } },
{ "type": "Feature", "properties": { "LSOA21CD": "W01000159", "place_type": "Village", "place_name": "Pandy Tudur", "distance_to_lsoa21_centroid_metres": 1770 }, "geometry": { "type": "Point", "coordinates": [ -3.7092421, 53.1635284 ] } },
{ "type": "Feature", "properties": { "LSOA21CD": "W01000162", "place_type": "Village", "place_name": "Llansannan", "distance_to_lsoa21_centroid_metres": 2995 }, "geometry": { "type": "Point", "coordinates": [ -3.5984091, 53.179755 ] } },
{ "type": "Feature", "properties": { "LSOA21CD": "W01000163", "place_type": "Village", "place_name": "Llysfaen", "distance_to_lsoa21_centroid_metres": 1147 }, "geometry": { "type": "Point", "coordinates": [ -3.6598332, 53.282711 ] } },
{ "type": "Feature", "properties": { "LSOA21CD": "W01000168", "place_type": "Pub", "place_name": "West Shore Social Club", "distance_to_lsoa21_centroid_metres": 167 }, "geometry": { "type": "Point", "coordinates": [ -3.8359022, 53.3144338 ] } },
{ "type": "Feature", "properties": { "LSOA21CD": "W01000170", "place_type": "Town", "place_name": "Llanfairfechan", "distance_to_lsoa21_centroid_metres": 324 }, "geometry": { "type": "Point", "coordinates": [ -3.9750615, 53.2531977 ] } },
{ "type": "Feature", "properties": { "LSOA21CD": "W01000171", "place_type": "Town", "place_name": "Penmaenmawr", "distance_to_lsoa21_centroid_metres": 91 }, "geometry": { "type": "Point", "coordinates": [ -3.9200268, 53.2681395 ] } },
{ "type": "Feature", "properties": { "LSOA21CD": "W01000172", "place_type": "Suburb", "place_name": "Pen-Y-coed", "distance_to_lsoa21_centroid_metres": 308 }, "geometry": { "type": "Point", "coordinates": [ -3.9237175, 53.2657097 ] } },
{ "type": "Feature", "properties": { "LSOA21CD": "W01000173", "place_type": "Village", "place_name": "Penrhyn-Side", "distance_to_lsoa21_centroid_metres": 415 }, "geometry": { "type": "Point", "coordinates": [ -3.7830334, 53.31806 ] } },
{ "type": "Feature", "properties": { "LSOA21CD": "W01000180", "place_type": "Village", "place_name": "Bryn y Maen", "distance_to_lsoa21_centroid_metres": 2108 }, "geometry": { "type": "Point", "coordinates": [ -3.7464896, 53.2701986 ] } },
{ "type": "Feature", "properties": { "LSOA21CD": "W01000184", "place_type": "Village", "place_name": "Towyn", "distance_to_lsoa21_centroid_metres": 319 }, "geometry": { "type": "Point", "coordinates": [ -3.5421729, 53.3007383 ] } },
{ "type": "Feature", "properties": { "LSOA21CD": "W01000185", "place_type": "Village", "place_name": "Trefriw", "distance_to_lsoa21_centroid_metres": 267 }, "geometry": { "type": "Point", "coordinates": [ -3.8274994, 53.1513887 ] } },
{ "type": "Feature", "properties": { "LSOA21CD": "W01000189", "place_type": "Pub", "place_name": "The Silver Fountain", "distance_to_lsoa21_centroid_metres": 1055 }, "geometry": { "type": "Point", "coordinates": [ -3.7823014, 53.0683226 ] } },
{ "type": "Feature", "properties": { "LSOA21CD": "W01000190", "place_type": "Village", "place_name": "Cerrigydrudion", "distance_to_lsoa21_centroid_metres": 266 }, "geometry": { "type": "Point", "coordinates": [ -3.5603628, 53.0252335 ] } },
{ "type": "Feature", "properties": { "LSOA21CD": "W01000191", "place_type": "Pub", "place_name": "T Fry Inn", "distance_to_lsoa21_centroid_metres": 149 }, "geometry": { "type": "Point", "coordinates": [ -3.5067908, 53.2698502 ] } },
{ "type": "Feature", "properties": { "LSOA21CD": "W01000192", "place_type": "Village", "place_name": "Llidiart y Parc", "distance_to_lsoa21_centroid_metres": 374 }, "geometry": { "type": "Point", "coordinates": [ -3.3144071, 52.9797231 ] } },
{ "type": "Feature", "properties": { "LSOA21CD": "W01000193", "place_type": "Town", "place_name": "Corwen", "distance_to_lsoa21_centroid_metres": 466 }, "geometry": { "type": "Point", "coordinates": [ -3.3731677, 52.9804731 ] } },
{ "type": "Feature", "properties": { "LSOA21CD": "W01000197", "place_type": "Pub", "place_name": "The Railway", "distance_to_lsoa21_centroid_metres": 462 }, "geometry": { "type": "Point", "coordinates": [ -3.411253357166111, 53.1866221 ] } },
{ "type": "Feature", "properties": { "LSOA21CD": "W01000199", "place_type": "Village", "place_name": "Henllan", "distance_to_lsoa21_centroid_metres": 765 }, "geometry": { "type": "Point", "coordinates": [ -3.45964, 53.2027647 ] } },
{ "type": "Feature", "properties": { "LSOA21CD": "W01000201", "place_type": "Pub", "place_name": "Tafarn Newydd \/ New Inn", "distance_to_lsoa21_centroid_metres": 248 }, "geometry": { "type": "Point", "coordinates": [ -3.418381305398458, 53.30279125 ] } },
{ "type": "Feature", "properties": { "LSOA21CD": "W01000202", "place_type": "Village", "place_name": "Clawddnewydd", "distance_to_lsoa21_centroid_metres": 215 }, "geometry": { "type": "Point", "coordinates": [ -3.369556, 53.0613343 ] } },
{ "type": "Feature", "properties": { "LSOA21CD": "W01000203", "place_type": "Village", "place_name": "Eryrys", "distance_to_lsoa21_centroid_metres": 1022 }, "geometry": { "type": "Point", "coordinates": [ -3.1914424, 53.1120661 ] } },
{ "type": "Feature", "properties": { "LSOA21CD": "W01000204", "place_type": "Village", "place_name": "Llanbedr Dyffryn Clwyd", "distance_to_lsoa21_centroid_metres": 1046 }, "geometry": { "type": "Point", "coordinates": [ -3.2766146, 53.124763 ] } },
{ "type": "Feature", "properties": { "LSOA21CD": "W01000205", "place_type": "Village", "place_name": "Cynwyd", "distance_to_lsoa21_centroid_metres": 1866 }, "geometry": { "type": "Point", "coordinates": [ -3.4047579, 52.9573673 ] } },
{ "type": "Feature", "properties": { "LSOA21CD": "W01000206", "place_type": "Village", "place_name": "Llandyrnog", "distance_to_lsoa21_centroid_metres": 171 }, "geometry": { "type": "Point", "coordinates": [ -3.3358968, 53.175139 ] } },
{ "type": "Feature", "properties": { "LSOA21CD": "W01000207", "place_type": "Village", "place_name": "Llanelidan", "distance_to_lsoa21_centroid_metres": 2494 }, "geometry": { "type": "Point", "coordinates": [ -3.3321207, 53.0445634 ] } },
{ "type": "Feature", "properties": { "LSOA21CD": "W01000208", "place_type": "Town", "place_name": "Llangollen", "distance_to_lsoa21_centroid_metres": 868 }, "geometry": { "type": "Point", "coordinates": [ -3.1711111, 52.9694033 ] } },
{ "type": "Feature", "properties": { "LSOA21CD": "W01000209", "place_type": "Pub", "place_name": "Royal Air Forces Association", "distance_to_lsoa21_centroid_metres": 809 }, "geometry": { "type": "Point", "coordinates": [ -3.172361784580913, 52.9723869 ] } },
{ "type": "Feature", "properties": { "LSOA21CD": "W01000210", "place_type": "Pub", "place_name": "The Sun Inn", "distance_to_lsoa21_centroid_metres": 131 }, "geometry": { "type": "Point", "coordinates": [ -3.1655235, 52.9686781 ] } },
{ "type": "Feature", "properties": { "LSOA21CD": "W01000211", "place_type": "Village", "place_name": "Prion", "distance_to_lsoa21_centroid_metres": 1199 }, "geometry": { "type": "Point", "coordinates": [ -3.4193167, 53.1488974 ] } },
{ "type": "Feature", "properties": { "LSOA21CD": "W01000216", "place_type": "Town", "place_name": "Prestatyn", "distance_to_lsoa21_centroid_metres": 260 }, "geometry": { "type": "Point", "coordinates": [ -3.4029487, 53.3345598 ] } },
{ "type": "Feature", "properties": { "LSOA21CD": "W01000223", "place_type": "Pub", "place_name": "Morfa Rhuddlan", "distance_to_lsoa21_centroid_metres": 1378 }, "geometry": { "type": "Point", "coordinates": [ -3.47158073435015, 53.2880117 ] } },
{ "type": "Feature", "properties": { "LSOA21CD": "W01000228", "place_type": "Pub", "place_name": "The Sun Verge", "distance_to_lsoa21_centroid_metres": 270 }, "geometry": { "type": "Point", "coordinates": [ -3.486870942402347, 53.3251354 ] } },
{ "type": "Feature", "properties": { "LSOA21CD": "W01000243", "place_type": "Town", "place_name": "Ruthin", "distance_to_lsoa21_centroid_metres": 492 }, "geometry": { "type": "Point", "coordinates": [ -3.3052405, 53.1115513 ] } },
{ "type": "Feature", "properties": { "LSOA21CD": "W01000245", "place_type": "Pub", "place_name": "Bryn Dinas", "distance_to_lsoa21_centroid_metres": 89 }, "geometry": { "type": "Point", "coordinates": [ -3.441463076020651, 53.2576078 ] } },
{ "type": "Feature", "properties": { "LSOA21CD": "W01000247", "place_type": "Village", "place_name": "Trefnant", "distance_to_lsoa21_centroid_metres": 660 }, "geometry": { "type": "Point", "coordinates": [ -3.4217055, 53.2252918 ] } },
{ "type": "Feature", "properties": { "LSOA21CD": "W01000248", "place_type": "Village", "place_name": "Tremeirchion", "distance_to_lsoa21_centroid_metres": 553 }, "geometry": { "type": "Point", "coordinates": [ -3.3773219, 53.2464654 ] } },
{ "type": "Feature", "properties": { "LSOA21CD": "W01000250", "place_type": "Pub", "place_name": "The Griffin", "distance_to_lsoa21_centroid_metres": 378 }, "geometry": { "type": "Point", "coordinates": [ -3.112160089134901, 53.16605015 ] } },
{ "type": "Feature", "properties": { "LSOA21CD": "W01000253", "place_type": "Town", "place_name": "Bagillt", "distance_to_lsoa21_centroid_metres": 213 }, "geometry": { "type": "Point", "coordinates": [ -3.1676296, 53.2640966 ] } },
{ "type": "Feature", "properties": { "LSOA21CD": "W01000254", "place_type": "Village", "place_name": "Whelston", "distance_to_lsoa21_centroid_metres": 137 }, "geometry": { "type": "Point", "coordinates": [ -3.1872941, 53.2776675 ] } },
{ "type": "Feature", "properties": { "LSOA21CD": "W01000255", "place_type": "Village", "place_name": "Broughton", "distance_to_lsoa21_centroid_metres": 280 }, "geometry": { "type": "Point", "coordinates": [ -2.9875151, 53.1650183 ] } },
{ "type": "Feature", "properties": { "LSOA21CD": "W01000258", "place_type": "Village", "place_name": "Pentre Halkyn", "distance_to_lsoa21_centroid_metres": 209 }, "geometry": { "type": "Point", "coordinates": [ -3.2070553, 53.2439513 ] } },
{ "type": "Feature", "properties": { "LSOA21CD": "W01000270", "place_type": "Village", "place_name": "Lixwm", "distance_to_lsoa21_centroid_metres": 167 }, "geometry": { "type": "Point", "coordinates": [ -3.2469249, 53.2332524 ] } },
{ "type": "Feature", "properties": { "LSOA21CD": "W01000271", "place_type": "Pub", "place_name": "The Royal Oak", "distance_to_lsoa21_centroid_metres": 42 }, "geometry": { "type": "Point", "coordinates": [ -3.306537016507375, 53.24633605 ] } },
{ "type": "Feature", "properties": { "LSOA21CD": "W01000272", "place_type": "Village", "place_name": "Cilcain", "distance_to_lsoa21_centroid_metres": 1627 }, "geometry": { "type": "Point", "coordinates": [ -3.2328344, 53.1783548 ] } },
{ "type": "Feature", "properties": { "LSOA21CD": "W01000274", "place_type": "Pub", "place_name": "Hare & Hounds", "distance_to_lsoa21_centroid_metres": 259 }, "geometry": { "type": "Point", "coordinates": [ -3.0578594, 53.2192984 ] } },
{ "type": "Feature", "properties": { "LSOA21CD": "W01000275", "place_type": "Pub", "place_name": "Sir Gawain and the Green Knight", "distance_to_lsoa21_centroid_metres": 243 }, "geometry": { "type": "Point", "coordinates": [ -3.0759898, 53.2234253 ] } },
{ "type": "Feature", "properties": { "LSOA21CD": "W01000283", "place_type": "Pub", "place_name": "The Boathouse", "distance_to_lsoa21_centroid_metres": 397 }, "geometry": { "type": "Point", "coordinates": [ -3.0491751, 53.2154278 ] } },
{ "type": "Feature", "properties": { "LSOA21CD": "W01000286", "place_type": "Village", "place_name": "Ewloe Green", "distance_to_lsoa21_centroid_metres": 528 }, "geometry": { "type": "Point", "coordinates": [ -3.0558056, 53.1921333 ] } },
{ "type": "Feature", "properties": { "LSOA21CD": "W01000287", "place_type": "Village", "place_name": "Pen-y-ffordd", "distance_to_lsoa21_centroid_metres": 98 }, "geometry": { "type": "Point", "coordinates": [ -3.3065572, 53.3287131 ] } },
{ "type": "Feature", "properties": { "LSOA21CD": "W01000288", "place_type": "Town", "place_name": "Flint", "distance_to_lsoa21_centroid_metres": 273 }, "geometry": { "type": "Point", "coordinates": [ -3.1345262, 53.2492828 ] } },
{ "type": "Feature", "properties": { "LSOA21CD": "W01000293", "place_type": "Pub", "place_name": "The Yacht", "distance_to_lsoa21_centroid_metres": 245 }, "geometry": { "type": "Point", "coordinates": [ -3.116391324181713, 53.24087635 ] } },
{ "type": "Feature", "properties": { "LSOA21CD": "W01000294", "place_type": "Village", "place_name": "Flint Mountain", "distance_to_lsoa21_centroid_metres": 1523 }, "geometry": { "type": "Point", "coordinates": [ -3.1409622, 53.2234242 ] } },
{ "type": "Feature", "properties": { "LSOA21CD": "W01000296", "place_type": "Village", "place_name": "Greenfield", "distance_to_lsoa21_centroid_metres": 132 }, "geometry": { "type": "Point", "coordinates": [ -3.2099834, 53.2884925 ] } },
{ "type": "Feature", "properties": { "LSOA21CD": "W01000298", "place_type": "Village", "place_name": "Upper Gronant", "distance_to_lsoa21_centroid_metres": 470 }, "geometry": { "type": "Point", "coordinates": [ -3.365009, 53.3368473 ] } },
{ "type": "Feature", "properties": { "LSOA21CD": "W01000299", "place_type": "Village", "place_name": "Gwernaffield", "distance_to_lsoa21_centroid_metres": 380 }, "geometry": { "type": "Point", "coordinates": [ -3.1889642, 53.1710616 ] } },
{ "type": "Feature", "properties": { "LSOA21CD": "W01000300", "place_type": "Village", "place_name": "Gwernymynydd", "distance_to_lsoa21_centroid_metres": 292 }, "geometry": { "type": "Point", "coordinates": [ -3.1685376, 53.1569597 ] } },
{ "type": "Feature", "properties": { "LSOA21CD": "W01000301", "place_type": "Village", "place_name": "Halkyn", "distance_to_lsoa21_centroid_metres": 701 }, "geometry": { "type": "Point", "coordinates": [ -3.1865066, 53.2257332 ] } },
{ "type": "Feature", "properties": { "LSOA21CD": "W01000302", "place_type": "Village", "place_name": "Hawarden", "distance_to_lsoa21_centroid_metres": 664 }, "geometry": { "type": "Point", "coordinates": [ -3.0266607, 53.1847774 ] } },
{ "type": "Feature", "properties": { "LSOA21CD": "W01000303", "place_type": "Village", "place_name": "Higher Kinnerton", "distance_to_lsoa21_centroid_metres": 57 }, "geometry": { "type": "Point", "coordinates": [ -3.0034398, 53.1439618 ] } },
{ "type": "Feature", "properties": { "LSOA21CD": "W01000307", "place_type": "Village", "place_name": "Hope", "distance_to_lsoa21_centroid_metres": 329 }, "geometry": { "type": "Point", "coordinates": [ -3.0341707, 53.1180417 ] } },
{ "type": "Feature", "properties": { "LSOA21CD": "W01000309", "place_type": "Village", "place_name": "Leeswood", "distance_to_lsoa21_centroid_metres": 63 }, "geometry": { "type": "Point", "coordinates": [ -3.0936077, 53.1336963 ] } },
{ "type": "Feature", "properties": { "LSOA21CD": "W01000310", "place_type": "Village", "place_name": "Cymau", "distance_to_lsoa21_centroid_metres": 255 }, "geometry": { "type": "Point", "coordinates": [ -3.0544784, 53.0940563 ] } },
{ "type": "Feature", "properties": { "LSOA21CD": "W01000311", "place_type": "Pub", "place_name": "The White Bear", "distance_to_lsoa21_centroid_metres": 273 }, "geometry": { "type": "Point", "coordinates": [ -3.0225847, 53.1953709 ] } },
{ "type": "Feature", "properties": { "LSOA21CD": "W01000320", "place_type": "Village", "place_name": "Mostyn", "distance_to_lsoa21_centroid_metres": 860 }, "geometry": { "type": "Point", "coordinates": [ -3.2657174, 53.3146906 ] } },
{ "type": "Feature", "properties": { "LSOA21CD": "W01000323", "place_type": "Village", "place_name": "Northop", "distance_to_lsoa21_centroid_metres": 56 }, "geometry": { "type": "Point", "coordinates": [ -3.1324591, 53.2067926 ] } },
{ "type": "Feature", "properties": { "LSOA21CD": "W01000325", "place_type": "Village", "place_name": "Northop Hall", "distance_to_lsoa21_centroid_metres": 102 }, "geometry": { "type": "Point", "coordinates": [ -3.0928011, 53.2025905 ] } },
{ "type": "Feature", "properties": { "LSOA21CD": "W01000326", "place_type": "Pub", "place_name": "Red Lion", "distance_to_lsoa21_centroid_metres": 29 }, "geometry": { "type": "Point", "coordinates": [ -3.047774166448516, 53.1448142 ] } },
{ "type": "Feature", "properties": { "LSOA21CD": "W01000327", "place_type": "Pub", "place_name": "Royal British Legion", "distance_to_lsoa21_centroid_metres": 559 }, "geometry": { "type": "Point", "coordinates": [ -3.0439171, 53.1491087 ] } },
{ "type": "Feature", "properties": { "LSOA21CD": "W01000328", "place_type": "Village", "place_name": "Sandycroft", "distance_to_lsoa21_centroid_metres": 210 }, "geometry": { "type": "Point", "coordinates": [ -3.0000801, 53.196358 ] } },
{ "type": "Feature", "properties": { "LSOA21CD": "W01000333", "place_type": "Village", "place_name": "Garden City", "distance_to_lsoa21_centroid_metres": 221 }, "geometry": { "type": "Point", "coordinates": [ -3.006391, 53.21517 ] } },
{ "type": "Feature", "properties": { "LSOA21CD": "W01000338", "place_type": "Village", "place_name": "Trelogan", "distance_to_lsoa21_centroid_metres": 1273 }, "geometry": { "type": "Point", "coordinates": [ -3.3273927, 53.3110666 ] } },
{ "type": "Feature", "properties": { "LSOA21CD": "W01000339", "place_type": "Village", "place_name": "Treuddyn", "distance_to_lsoa21_centroid_metres": 137 }, "geometry": { "type": "Point", "coordinates": [ -3.1192865, 53.115138 ] } },
{ "type": "Feature", "properties": { "LSOA21CD": "W01000340", "place_type": "Village", "place_name": "Carmel", "distance_to_lsoa21_centroid_metres": 150 }, "geometry": { "type": "Point", "coordinates": [ -3.2599007, 53.281051 ] } },
{ "type": "Feature", "properties": { "LSOA21CD": "W01000345", "place_type": "Village", "place_name": "Bangor-on-Dee", "distance_to_lsoa21_centroid_metres": 229 }, "geometry": { "type": "Point", "coordinates": [ -2.9091531, 53.0029688 ] } },
{ "type": "Feature", "properties": { "LSOA21CD": "W01000346", "place_type": "Village", "place_name": "Bronington", "distance_to_lsoa21_centroid_metres": 1294 }, "geometry": { "type": "Point", "coordinates": [ -2.7659819, 52.9496851 ] } },
{ "type": "Feature", "properties": { "LSOA21CD": "W01000347", "place_type": "Village", "place_name": "Tanyfron", "distance_to_lsoa21_centroid_metres": 607 }, "geometry": { "type": "Point", "coordinates": [ -3.0508552, 53.0624009 ] } },
{ "type": "Feature", "properties": { "LSOA21CD": "W01000354", "place_type": "Village", "place_name": "Acrefair", "distance_to_lsoa21_centroid_metres": 194 }, "geometry": { "type": "Point", "coordinates": [ -3.0804834, 52.9804898 ] } },
{ "type": "Feature", "properties": { "LSOA21CD": "W01000359", "place_type": "Village", "place_name": "Halton", "distance_to_lsoa21_centroid_metres": 1068 }, "geometry": { "type": "Point", "coordinates": [ -3.039331, 52.9511506 ] } },
{ "type": "Feature", "properties": { "LSOA21CD": "W01000361", "place_type": "Town", "place_name": "Chirk", "distance_to_lsoa21_centroid_metres": 381 }, "geometry": { "type": "Point", "coordinates": [ -3.056386, 52.9320109 ] } },
{ "type": "Feature", "properties": { "LSOA21CD": "W01000370", "place_type": "Pub", "place_name": "The Plough", "distance_to_lsoa21_centroid_metres": 92 }, "geometry": { "type": "Point", "coordinates": [ -2.971878, 53.0850951 ] } },
{ "type": "Feature", "properties": { "LSOA21CD": "W01000389", "place_type": "Village", "place_name": "Trevor", "distance_to_lsoa21_centroid_metres": 212 }, "geometry": { "type": "Point", "coordinates": [ -3.0880255, 52.9738499 ] } },
{ "type": "Feature", "properties": { "LSOA21CD": "W01000390", "place_type": "Village", "place_name": "Llay", "distance_to_lsoa21_centroid_metres": 288 }, "geometry": { "type": "Point", "coordinates": [ -2.9994725, 53.0970796 ] } },
{ "type": "Feature", "properties": { "LSOA21CD": "W01000394", "place_type": "Village", "place_name": "Cross Lanes", "distance_to_lsoa21_centroid_metres": 1319 }, "geometry": { "type": "Point", "coordinates": [ -2.9303679, 53.0177441 ] } },
{ "type": "Feature", "properties": { "LSOA21CD": "W01000395", "place_type": "Village", "place_name": "Marchwiel", "distance_to_lsoa21_centroid_metres": 71 }, "geometry": { "type": "Point", "coordinates": [ -2.9598927, 53.0234574 ] } },
{ "type": "Feature", "properties": { "LSOA21CD": "W01000398", "place_type": "Village", "place_name": "Minera", "distance_to_lsoa21_centroid_metres": 70 }, "geometry": { "type": "Point", "coordinates": [ -3.0847218, 53.0595773 ] } },
{ "type": "Feature", "properties": { "LSOA21CD": "W01000399", "place_type": "Village", "place_name": "Bwlchgwyn", "distance_to_lsoa21_centroid_metres": 172 }, "geometry": { "type": "Point", "coordinates": [ -3.1023826, 53.0723632 ] } },
{ "type": "Feature", "properties": { "LSOA21CD": "W01000403", "place_type": "Village", "place_name": "Hanmer", "distance_to_lsoa21_centroid_metres": 1163 }, "geometry": { "type": "Point", "coordinates": [ -2.8128367, 52.9522812 ] } },
{ "type": "Feature", "properties": { "LSOA21CD": "W01000404", "place_type": "Village", "place_name": "Overton", "distance_to_lsoa21_centroid_metres": 469 }, "geometry": { "type": "Point", "coordinates": [ -2.9344704, 52.9698401 ] } },
{ "type": "Feature", "properties": { "LSOA21CD": "W01000407", "place_type": "Railway station", "place_name": "Ruabon", "distance_to_lsoa21_centroid_metres": 195 }, "geometry": { "type": "Point", "coordinates": [ -3.0433247, 52.9872119 ] } },
{ "type": "Feature", "properties": { "LSOA21CD": "W01000408", "place_type": "Pub", "place_name": "Black Horse", "distance_to_lsoa21_centroid_metres": 36 }, "geometry": { "type": "Point", "coordinates": [ -3.071878768237446, 52.99956435 ] } },
{ "type": "Feature", "properties": { "LSOA21CD": "W01000410", "place_type": "Village", "place_name": "Ponciau", "distance_to_lsoa21_centroid_metres": 93 }, "geometry": { "type": "Point", "coordinates": [ -3.0485779, 53.0134176 ] } },
{ "type": "Feature", "properties": { "LSOA21CD": "W01000412", "place_type": "Village", "place_name": "Rhosllanerchrugog", "distance_to_lsoa21_centroid_metres": 294 }, "geometry": { "type": "Point", "coordinates": [ -3.059416, 53.0127346 ] } },
{ "type": "Feature", "properties": { "LSOA21CD": "W01000417", "place_type": "Village", "place_name": "Darland", "distance_to_lsoa21_centroid_metres": 829 }, "geometry": { "type": "Point", "coordinates": [ -2.929495, 53.114385 ] } },
{ "type": "Feature", "properties": { "LSOA21CD": "W01000418", "place_type": "Village", "place_name": "Burton", "distance_to_lsoa21_centroid_metres": 387 }, "geometry": { "type": "Point", "coordinates": [ -2.9615762, 53.1104634 ] } },
{ "type": "Feature", "properties": { "LSOA21CD": "W01000426", "place_type": "Village", "place_name": "Abercraf", "distance_to_lsoa21_centroid_metres": 699 }, "geometry": { "type": "Point", "coordinates": [ -3.7153943, 51.8005881 ] } },
{ "type": "Feature", "properties": { "LSOA21CD": "W01000427", "place_type": "Railway station", "place_name": "Llanbister Road", "distance_to_lsoa21_centroid_metres": 4590 }, "geometry": { "type": "Point", "coordinates": [ -3.2131872, 52.3363191 ] } },
{ "type": "Feature", "properties": { "LSOA21CD": "W01000428", "place_type": "Village", "place_name": "Aberriw", "distance_to_lsoa21_centroid_metres": 316 }, "geometry": { "type": "Point", "coordinates": [ -3.2009082, 52.5994717 ] } },
{ "type": "Feature", "properties": { "LSOA21CD": "W01000429", "place_type": "Village", "place_name": "Y Fan", "distance_to_lsoa21_centroid_metres": 623 }, "geometry": { "type": "Point", "coordinates": [ -3.5594608, 52.4769586 ] } },
{ "type": "Feature", "properties": { "LSOA21CD": "W01000430", "place_type": "Village", "place_name": "Llyswen", "distance_to_lsoa21_centroid_metres": 286 }, "geometry": { "type": "Point", "coordinates": [ -3.2655663, 52.0334 ] } },
{ "type": "Feature", "properties": { "LSOA21CD": "W01000433", "place_type": "Village", "place_name": "Llanwnnog", "distance_to_lsoa21_centroid_metres": 709 }, "geometry": { "type": "Point", "coordinates": [ -3.4413806, 52.5336326 ] } },
{ "type": "Feature", "properties": { "LSOA21CD": "W01000434", "place_type": "Village", "place_name": "Churchstoke", "distance_to_lsoa21_centroid_metres": 220 }, "geometry": { "type": "Point", "coordinates": [ -3.0730301, 52.5406077 ] } },